city_name,country,city_lat,city_lon,population,max_wind_raw,max_wind,cell_idx,time_idx,timestamp,lat,lon,continent
Nagasaki,Japan,32.7649884,129.8850329,435455,48.80888748168945,175.71199493408204,1344302,25459,2088-09-17T12:00:00.000000000,32.653778076171875,129.73170471191406,Asia
Navsari,India,20.8503927,72.9200345,163000,46.05345916748047,165.7924530029297,1955024,9959,2083-05-30T00:00:00.000000000,20.773286819458008,72.80081176757812,Asia
Diu,India,20.7196733,70.990395,23779,45.281734466552734,163.01424407958984,1958961,9957,2083-05-29T18:00:00.000000000,20.70298767089844,71.0,Asia
Busan,South Korea,35.0969988,129.0081017,3480000,44.18022155761719,159.04879760742188,1228830,28316,2089-09-09T15:00:00.000000000,35.184532165527344,129.2602081298828,Asia
Ulsan,South Korea,35.5486766,129.315008,1061000,41.4102897644043,149.07704315185546,1222568,28316,2089-09-09T15:00:00.000000000,35.325130462646484,129.36061096191406,Asia
Jeju,South Korea,33.5101367,126.5219307,408364,40.40748977661133,145.4669631958008,1298753,19544,2086-09-09T03:00:00.000000000,33.637962341308594,126.5136489868164,Asia
St.-Denis,France,-20.8788948,55.4480778,190047,39.24382781982422,141.27778015136718,4653964,23568,2088-01-25T03:00:00.000000000,-20.98418235778809,55.49695587158203,Europe
Daman,India,20.4170083,72.850013,39737,38.3050422668457,137.89815216064454,1974848,9959,2083-05-30T00:00:00.000000000,20.42179298400879,72.79678344726562,Asia
Casey Station,Antarctica,-66.2860861,110.536214,200,38.19273376464844,137.49384155273438,6365528,21432,2087-05-03T03:00:00.000000000,-66.256591796875,110.52631378173828,Antarctica
Portsmouth,United Kingdom,50.8003475,-1.0800222,442252,37.65354537963867,135.55276336669922,635018,32266,2091-01-16T09:00:00.000000000,50.72056198120117,359.0408630371094,Europe
St.-Benoit,France,-21.0335107,55.7128161,35310,37.524539947509766,135.08834381103517,4657909,6062,2082-01-27T21:00:00.000000000,-21.054481506347656,55.64466857910156,Europe
Showa Station,Antarctica,-69.0303925,39.7460831,60,37.2234001159668,134.00424041748047,6416842,31026,2090-08-14T09:00:00.000000000,-69.06853485107422,39.93377304077149,Antarctica
Onslow,Australia,-21.6575935,115.0962959,573,35.974483489990234,129.50814056396484,4689958,35092,2092-01-04T15:00:00.000000000,-21.61687088012696,115.1484146118164,Oceania
Kulusuk,Greenland,65.566578,-37.1833224,286,35.921363830566406,129.31690979003906,248327,89,2080-01-12T06:00:00.000000000,65.55360412597656,322.9261474609375,North America
Shantou,China,23.3719522,116.6680797,1601000,35.66008758544922,128.3763153076172,1823338,30940,2090-08-03T15:00:00.000000000,23.16344451904297,116.67015838623048,Asia
Miyazaki,Japan,31.9182442,131.418376,324384,35.54213333129883,127.95167999267578,1383960,22675,2087-10-05T12:00:00.000000000,31.810192108154297,131.53846740722656,Asia
Naha,Japan,26.2071717,127.6729716,905238,35.47088623046875,127.6951904296875,1662919,7994,2082-09-26T09:00:00.000000000,26.1862907409668,127.79605102539062,Asia
Neumayer Station III,Antarctica,-70.8903967,-7.838438,40,35.44767379760742,127.61162567138672,6447896,18929,2086-06-24T06:00:00.000000000,-70.89630889892578,352.1739196777344,Antarctica
Eldorado,Mexico,24.3304645,-107.3699943,17365,35.42169570922852,127.51810455322266,1764159,8266,2082-10-30T09:00:00.000000000,24.288225173950195,252.555908203125,North America
Wasa Station,Antarctica,-73.0496122,-13.4167111,10,34.83707046508789,125.4134536743164,6479144,7732,2082-08-24T15:00:00.000000000,-73.0052719116211,346.8292541503906,Antarctica
Beira,Mozambique,-19.8200447,34.8700057,530604,34.80728912353516,125.30624084472656,4586086,311,2080-02-09T00:00:00.000000000,-19.78910255432129,34.99501419067383,Africa
Brighton,United Kingdom,50.8303457,-0.1699744,503008,34.64466857910156,124.72080688476562,635022,32266,2091-01-16T09:00:00.000000000,50.72056198120117,359.6802978515625,Europe
Jiaojing,China,28.6804057,121.4499922,471500,34.64439392089844,124.71981811523438,1541158,19307,2086-08-10T12:00:00.000000000,28.57644844055176,121.5717544555664,Asia
Fukuoka,Japan,33.5969611,130.4080679,2792000,34.59492111206055,124.54171600341796,1292349,25461,2088-09-17T18:00:00.000000000,33.77855682373047,130.4104461669922,Asia
Dumont d'Urville Station,Antarctica,-66.7750509,139.9636836,120,34.53370666503906,124.32134399414063,6376460,30468,2090-06-05T15:00:00.000000000,-66.81897735595703,140.11976623535156,Antarctica
Penzance,United Kingdom,50.1337215,-5.5500336,20812,34.48643112182617,124.15115203857422,653149,32265,2091-01-16T06:00:00.000000000,50.15817260742188,354.4833679199219,Europe
Surat,India,21.2019296,72.8380936,3842000,34.44891357421875,124.0160888671875,1919591,9959,2083-05-30T00:00:00.000000000,21.405975341796875,72.64286041259766,Asia
Wahiawa,United States of America,21.5030919,-158.0236209,174766,34.44382858276367,123.99778289794922,1917082,2069,2080-09-15T18:00:00.000000000,21.476274490356445,202.0633239746093,North America
Mawson Station,Antarctica,-67.6145203,62.8750007,60,34.113529205322266,122.80870513916015,6391933,19241,2086-08-02T06:00:00.000000000,-67.66255950927734,62.88819885253906,Antarctica
Hamamatsu,Japan,34.7180733,137.7327193,977023,33.84403610229492,121.83852996826172,1250950,31125,2090-08-26T18:00:00.000000000,34.69244384765625,137.673828125,Asia
Hong Kong,Hong Kong S.A.R.,22.3069268,114.1830635,7206000,33.72611618041992,121.41401824951171,1873302,37194,2092-09-23T09:00:00.000000000,22.24955940246582,114.35950469970705,Asia
Novolazarevskaya Station,Antarctica,-71.3012347,-11.8502129,70,33.63930130004883,121.1014846801758,6454425,7730,2082-08-24T09:00:00.000000000,-71.31809997558594,348.3333435058594,Antarctica
Lerwick,United Kingdom,60.1500352,-1.1499921,6594,33.42765808105469,120.33956909179688,368894,17296,2085-12-02T03:00:00.000000000,60.14059448242188,358.74127197265625,Europe
Bowen,Australia,-20.0013257,148.208669,10983,33.3745002746582,120.14820098876952,4595365,14708,2085-01-12T15:00:00.000000000,-19.92970085144043,148.26173400878906,Oceania
Sambava,Madagascar,-14.2661719,50.1665913,43465,33.304443359375,119.89599609375,4261039,29618,2090-02-19T09:00:00.000000000,-14.30579948425293,50.20351409912109,Africa
Bournemouth,United Kingdom,50.7299901,-1.9000497,426945,33.1980094909668,119.51283416748048,637269,32266,2091-01-16T09:00:00.000000000,50.65026092529297,358.24468994140625,Europe
Lihue,United States of America,21.97555195694877,-159.36927136302037,15536,33.081748962402344,119.09429626464843,1889751,2071,2080-09-16T00:00:00.000000000,21.96836471557617,200.6481475830078,North America
Marambio Base,Antarctica,-64.2328894,-56.6500153,150,33.007869720458984,118.82833099365234,6324946,33789,2091-07-25T18:00:00.000000000,-64.21792602539062,303.2344970703125,Antarctica
Mananjary,Madagascar,-21.216652,48.3333182,27686,32.870384216308594,118.33338317871096,4665704,4,2080-01-01T15:00:00.000000000,-21.195077896118164,48.34181213378906,Africa
Laoag,Philippines,18.1988491,120.5936104,207048,32.791015625,118.04765625,2096435,2441,2080-11-01T06:00:00.000000000,18.31282997131348,120.498046875,Asia
Davis Station,Antarctica,-68.7776744,78.1407351,70,32.71861267089844,117.78700561523438,6410874,33511,2091-06-21T00:00:00.000000000,-68.717041015625,77.98045349121094,Antarctica
Kagoshima,Japan,31.5859648,130.561064,555352,32.61251449584961,117.4050521850586,1400639,27881,2089-07-17T06:00:00.000000000,31.45869827270508,130.64515686035156,Asia
Honolulu,United States of America,21.30342908415294,-157.85830077406945,786000,32.58945846557617,117.32205047607422,1921000,2069,2080-09-15T18:00:00.000000000,21.405975341796875,202.0408172607422,North America
Da Nang,Vietnam,16.0600391,108.2499711,1000000,32.555843353271484,117.20103607177737,2216738,2487,2080-11-07T00:00:00.000000000,16.2741641998291,108.20513153076172,Asia
Tokyo,Japan,35.6869628,139.7494616,35676000,32.40306854248047,116.65104675292967,1225785,25622,2088-10-07T21:00:00.000000000,35.25483322143555,139.42529296875,Asia
Yokohama,Japan,35.4306562,139.602021,3697894,32.40306854248047,116.65104675292967,1225785,25622,2088-10-07T21:00:00.000000000,35.25483322143555,139.42529296875,Asia
Chumikan,Russia,54.7113945,135.3145141,1305,32.08662796020508,115.51186065673828,511781,35263,2092-01-26T00:00:00.000000000,54.72759246826172,135.35572814941406,Europe
Port Hedland,Australia,-20.3104024,118.6060315,14288,32.053470611572266,115.39249420166016,4615008,26086,2088-12-04T21:00:00.000000000,-20.28119468688965,118.55421447753906,Oceania
Troll Station,Antarctica,-72.0162903,2.5333231,44,31.94173049926757,114.99022979736328,6462963,25260,2088-08-23T15:00:00.000000000,-71.95079040527344,2.4137930870056152,Antarctica
Naga,Philippines,13.6191545,123.1813594,741635,31.913131713867188,114.88727416992188,2371115,28830,2089-11-12T21:00:00.000000000,13.743409156799316,123.22313690185548,Asia
Beihai,China,21.4804059,109.1000484,728978,31.86939811706543,114.72983322143556,1916070,4961,2081-09-12T06:00:00.000000000,21.476274490356445,109.02962493896484,Asia
Myrtle Beach,United States of America,33.6889114,-78.8869784,49357,31.81040382385254,114.51745376586916,1296915,20629,2087-01-22T18:00:00.000000000,33.70825958251953,281.1801147460937,North America
Cherbourg,France,49.6503919,-1.6499874,60991,31.777070999145508,114.39745559692383,669273,32265,2091-01-16T06:00:00.000000000,49.66608047485352,358.2872009277344,Europe
Hamilton,Bermuda,32.2941903,-64.7839374,52320,31.65967559814453,113.97483215332032,1365569,37208,2092-09-25T03:00:00.000000000,32.23198699951172,295.16949462890625,North America
Halley Station,Antarctica,-76.0922632,-26.4741567,70,31.576658248901367,113.67596969604492,6518456,36537,2092-07-03T06:00:00.000000000,-76.0984115600586,333.267333984375,Antarctica
Shimonoseki,Japan,33.9654319,130.9454333,245786,31.36304473876953,112.90696105957032,1279523,25461,2088-09-17T18:00:00.000000000,34.05975341796875,130.83749389648438,Asia
Tasiilaq,Greenland,65.6018693,-37.6337371,1829,31.284543991088867,112.62435836791992,248325,6069,2082-01-28T18:00:00.000000000,65.55360412597656,322.4147644042969,North America
Hualien,Taiwan,23.9837415,121.6000089,350468,31.272146224975582,112.57972640991213,1785398,16411,2085-08-13T12:00:00.000000000,23.866432189941406,121.71428680419922,Asia
Brugge,Belgium,51.2203736,3.2300248,146469,31.260292053222656,112.53705139160157,612703,32267,2091-01-16T12:00:00.000000000,51.353248596191406,3.086642503738404,Europe
Tukchi,Russia,57.3669751,139.5000016,10,31.25533103942871,112.51919174194336,439671,29027,2089-12-07T12:00:00.000000000,57.328643798828125,139.5095977783203,Europe
Altata,Mexico,24.6360451,-107.9162153,1000,31.140125274658203,112.10445098876951,1749159,19870,2086-10-19T21:00:00.000000000,24.569419860839844,252.09625244140625,North America
Kaktovik,United States of America,70.0878555,-143.6029132,101,31.128705978393555,112.0633415222168,165964,23999,2088-03-19T00:00:00.000000000,70.05271911621094,216.25,North America
Cardiff,United Kingdom,51.48261904913091,-3.167598195527729,861400,31.03661346435547,111.73180847167968,614880,32266,2091-01-16T09:00:00.000000000,51.353248596191406,356.7509155273437,Europe
Middelburg,Netherlands,51.5019962,3.6099995,46485,31.019567489624023,111.67044296264648,606082,32267,2091-01-16T12:00:00.000000000,51.56414794921875,3.593466520309448,Europe
Mumbai,India,19.06840847529168,72.8758393972653,18978000,30.987342834472656,111.55443420410155,2026857,9958,2083-05-29T21:00:00.000000000,19.50790786743164,72.66136932373047,Asia
Mirny Station,Antarctica,-66.5755295,93.0062885,169,30.864288330078125,111.11143798828124,6372256,13190,2084-07-06T21:00:00.000000000,-66.60808563232422,92.93768310546876,Antarctica
Wailuku,United States of America,20.8914754,-156.5047213,52148,30.802453994750977,110.88883438110352,1948556,2067,2080-09-15T12:00:00.000000000,20.91388320922852,203.5258331298828,North America
Maitri Station,Antarctica,-70.7821796,11.7304584,65,30.77159118652344,110.77772827148438,6445744,25259,2088-08-23T12:00:00.000000000,-70.82600402832031,11.69675064086914,Antarctica
Chattogram,Bangladesh,22.3319381,91.7980215,4529000,30.76237869262696,110.74456329345703,1880807,15840,2085-06-03T03:00:00.000000000,22.108963012695312,91.57731628417967,Asia
Yeosu,South Korea,34.7367802,127.7458353,341994,30.746414184570312,110.68709106445311,1254028,19544,2086-09-09T03:00:00.000000000,34.62214279174805,127.7272720336914,Asia
Morombe,Madagascar,-21.7391385,43.3656776,16727,30.733154296875,110.63935546875,4693087,29681,2090-02-27T06:00:00.000000000,-21.687170028686523,43.432376861572266,Africa
Ōsaka,Japan,34.691095244477914,135.50375419006232,11294000,30.702911376953125,110.53048095703126,1257265,31258,2090-09-12T09:00:00.000000000,34.55184555053711,135.39723205566406,Asia
Kōbe,Japan,34.6799878,135.1699816,1528478,30.702911376953125,110.53048095703126,1257265,31258,2090-09-12T09:00:00.000000000,34.55184555053711,135.39723205566406,Asia
Shizuoka,Japan,34.9858348,138.3853926,701561,30.611501693725582,110.20140609741212,1241483,31126,2090-08-26T21:00:00.000000000,34.90333938598633,138.3121795654297,Asia
Taitung,Taiwan,22.7553927,121.140037,175000,30.60450553894043,110.17621994018556,1846374,13891,2084-10-02T12:00:00.000000000,22.74165153503418,121.18626403808594,Asia
Plymouth,United Kingdom,50.3853858,-4.1599893,247297,30.554536819458008,109.99633255004883,648593,32265,2091-01-16T06:00:00.000000000,50.29876708984375,355.7293395996094,Europe
Halifax,Canada,44.6500252,-63.6000045,359111,30.380455017089844,109.36963806152345,848405,17502,2085-12-27T21:00:00.000000000,44.534271240234375,296.5437927246094,North America
Curepipe,Mauritius,-20.3161902,57.5166337,299975,30.32317352294922,109.1634246826172,4622294,14432,2084-12-09T03:00:00.000000000,-20.42179298400879,57.40442657470703,Africa
Ayr,Australia,-19.5702409,147.3994677,9078,30.31730079650879,109.14228286743165,4571258,14711,2085-01-13T00:00:00.000000000,-19.50790786743164,147.4677276611328,Oceania
Grytviken,South Georgia and the Islands,-54.280577,-36.5079889,99,30.27991485595703,109.00769348144532,6074200,14350,2084-11-28T21:00:00.000000000,-54.23550033569336,323.5087585449219,South America
Cancún,Mexico,21.1699597,-86.8300078,542043,30.27962112426757,109.00663604736329,1929625,25436,2088-09-14T15:00:00.000000000,21.26537704467773,273.2077331542969,North America
Tsu,Japan,34.7170657,136.5166695,500000,30.23013687133789,108.8284927368164,1250941,31258,2090-09-12T09:00:00.000000000,34.69244384765625,136.64981079101562,Asia
Carnarvon,Australia,-24.899838,113.6501066,7392,30.183399200439453,108.66023712158204,4869234,14914,2085-02-07T09:00:00.000000000,-24.920913696289062,113.61289978027344,Oceania
Dover,United Kingdom,51.1337122,1.3000134,36384,30.164587020874023,108.59251327514647,621580,32266,2091-01-16T09:00:00.000000000,51.07205581665039,1.2903225421905518,Europe
Port Louis,Mauritius,-20.1666386,57.4999939,595491,30.11359596252441,108.4089454650879,4602358,35625,2092-03-11T06:00:00.000000000,-20.07029914855957,57.47747802734375,Africa
Atlantic City,United States of America,39.3646373,-74.4233232,76573,30.10206794738769,108.36744461059573,1049162,32295,2091-01-20T00:00:00.000000000,39.40245819091797,285.6629943847656,North America
Calbayog,Philippines,12.067182,124.6041666,67921,30.022029876708984,108.07930755615234,2472363,28827,2089-11-12T12:00:00.000000000,12.126537322998049,124.5593490600586,Asia
Calais,France,50.9504159,1.8333142,92201,29.830081939697266,107.38829498291015,623815,32267,2091-01-16T12:00:00.000000000,51.00175476074219,1.771019697189331,Europe
Gen. O'Higgins Base,Antarctica,-63.3284182,-57.8895935,44,29.821462631225582,107.35726547241212,6306861,951,2080-04-29T00:00:00.000000000,-63.37434005737305,301.9582214355469,Antarctica
Androka,Madagascar,-25.0219462,44.0749469,174,29.80866432189941,107.31119155883788,4875950,35514,2092-02-26T09:00:00.000000000,-25.06151008605957,44.03017425537109,Africa
Klaipėda,Lithuania,55.720409,21.1199406,192307,29.79566192626953,107.26438293457032,479294,19942,2086-10-28T21:00:00.000000000,55.85237121582031,20.93877601623535,Europe
Tokushima,Japan,34.0673895,134.5525,443760,29.78345489501953,107.22043762207032,1279557,31257,2090-09-12T06:00:00.000000000,34.05975341796875,134.66250610351562,Asia
Aboa Station,Antarctica,-75.0495935,-13.4167111,18,29.540721893310547,106.34659881591796,6505943,36000,2092-04-27T03:00:00.000000000,-75.04393005371094,346.3133544921875,Antarctica
Brownsville,United States of America,25.9199799,-97.5000025,181399,29.495336532592773,106.183211517334,1671591,25462,2088-09-17T21:00:00.000000000,26.04569435119629,262.6148681640625,North America
Newport,United States of America,41.490399,-71.313358,45968,29.460344314575195,106.0572395324707,966850,2571,2080-11-17T12:00:00.000000000,41.44112396240234,288.7769775390625,North America
Matamoros,Mexico,25.8799823,-97.5000025,538785,29.45703125,106.0453125,1686251,25460,2088-09-17T15:00:00.000000000,25.764497756958008,262.6470642089844,North America
Les Cayes,Haiti,18.2003736,-73.7499793,175457,29.3787784576416,105.76360244750975,2106524,25416,2088-09-12T03:00:00.000000000,18.172231674194336,286.3157958984375,North America
Portland,United States of America,43.6721616,-70.2455274,135866,29.354042053222656,105.67455139160155,882563,37221,2092-09-26T18:00:00.000000000,43.620384216308594,289.9247131347656,North America
The Hague,Netherlands,52.0800368,4.2699613,1406000,29.32050514221192,105.55381851196287,595124,32267,2091-01-16T12:00:00.000000000,51.91564178466797,3.956043958663941,Europe
Brest,France,48.3904429,-4.4950076,144899,29.21913146972656,105.18887329101562,711553,32264,2091-01-16T03:00:00.000000000,48.40070343017578,355.3187866210937,Europe
Elephant Island,Antarctica,-61.999589,-57.9999846,6,29.21264839172364,105.16553421020508,6277057,33825,2091-07-30T06:00:00.000000000,-62.03866195678711,302.0149230957031,Antarctica
Virginia Beach,United States of America,36.8551602,-75.9802646,1491000,29.1987247467041,105.11540908813475,1165181,9066,2083-02-07T09:00:00.000000000,36.66080856323242,284.1546630859375,North America
Tottori,Japan,35.500377,134.2332946,154098,29.174917221069336,105.0297019958496,1213245,22680,2087-10-06T03:00:00.000000000,35.53602600097656,134.1334991455078,Asia
Miami,United States of America,25.7895566,-80.2260519,5585000,29.163742065429688,104.98947143554688,1693781,25268,2088-08-24T15:00:00.000000000,25.6239013671875,279.88043212890625,North America
Wakayama,Japan,34.2231165,135.1677079,440006,29.15119361877441,104.9442970275879,1276363,31257,2090-09-12T06:00:00.000000000,34.13005065917969,135.0563201904297,Asia
Esperanza Base,Antarctica,-63.3753287,-57.0259015,250,29.13530731201172,104.8871063232422,6305333,3305,2081-02-17T06:00:00.000000000,-63.30403900146485,303.046875,Antarctica
Le Havre,France,49.5049744,0.1049701,242124,29.11752891540528,104.823104095459,673920,32366,2091-01-28T21:00:00.000000000,49.45518493652344,0.0,Europe
Nagoya,Japan,35.1569434,136.9130456,3230000,29.08406448364257,104.70263214111328,1238319,31258,2090-09-12T09:00:00.000000000,34.973636627197266,136.658203125,Asia
Đồng Hới,Vietnam,17.4833372,106.6000459,189265,29.07844352722168,104.68239669799804,2137429,7950,2082-09-20T21:00:00.000000000,17.60984230041504,106.624755859375,Asia
Bridgeport,United States of America,41.1819245,-73.201907,1018000,29.06916618347168,104.64899826049805,983593,23044,2087-11-20T15:00:00.000000000,41.01933288574219,286.6904296875,North America
New York,United States of America,40.72156174972766,-73.99571754361698,19040000,29.01436233520508,104.45170440673829,983592,23044,2087-11-20T15:00:00.000000000,41.01933288574219,286.5620422363281,North America
Stamford,United States of America,41.0533456,-73.5391911,746920,29.01436233520508,104.45170440673829,983592,23044,2087-11-20T15:00:00.000000000,41.01933288574219,286.5620422363281,North America
Prudhoe Bay,United States of America,70.292181,-148.6693598,2500,28.98630714416504,104.35070571899416,161371,17549,2086-01-02T18:00:00.000000000,70.33391571044922,211.3732452392578,North America
Zhongli,Taiwan,24.9650252,121.2167765,1632616,28.91806411743164,104.1050308227539,1721720,36841,2092-08-10T06:00:00.000000000,25.06151008605957,121.03448486328124,Asia
Legazpi,Philippines,13.1699829,123.7500069,320081,28.89552497863769,104.02388992309572,2401708,28828,2089-11-12T15:00:00.000000000,13.251317977905272,123.83211517333984,Asia
Novorossiysk,Russia,44.7299687,37.769932,241856,28.85836601257324,103.89011764526369,841335,34728,2091-11-20T03:00:00.000000000,44.67486572265625,37.58089447021485,Europe
Isla Mujeres,Mexico,21.2083906,-86.7114549,12491,28.852155685424805,103.8677604675293,1933557,25435,2088-09-14T12:00:00.000000000,21.195077896118164,273.2960205078125,North America
Atka,United States of America,52.1964897,-174.2004887,61,28.7585391998291,103.53074111938476,585357,25945,2088-11-17T06:00:00.000000000,52.26713562011719,185.8225555419922,North America
Signy Research Station,Antarctica,-60.6313081,-45.6007033,8,28.7200927734375,103.392333984375,6242493,6829,2082-05-03T18:00:00.000000000,-60.5623893737793,314.2553100585937,Antarctica
Kitakyūshū,Japan,33.870399,130.8200146,997536,28.67393684387207,103.22617263793946,1282723,25460,2088-09-17T15:00:00.000000000,33.98945617675781,130.67416381835938,Asia
Miaoli,Taiwan,24.57,120.82,150000,28.66901588439941,103.2084571838379,1751535,13329,2084-07-24T06:00:00.000000000,24.49912071228028,120.67308044433594,Asia
Kure,Japan,34.2509701,132.5655928,196991,28.65250396728516,103.14901428222656,1276342,22677,2087-10-05T18:00:00.000000000,34.13005065917969,132.69085693359375,Asia
Mito,Japan,36.3704273,140.4800451,353892,28.635831832885746,103.08899459838868,1179272,25623,2088-10-08T00:00:00.000000000,36.3093147277832,140.625,Asia
Harlingen,United States of America,26.1975598,-97.6901976,110339,28.6169376373291,103.02097549438476,1660636,25462,2088-09-17T21:00:00.000000000,26.256589889526367,262.3929748535156,North America
Quezon City,Philippines,14.6504352,121.0299662,2761720,28.581588745117188,102.89371948242189,2319110,28835,2089-11-13T12:00:00.000000000,14.586994171142578,120.83565521240234,Asia
Manila,Philippines,14.6061048,120.9802713,11100000,28.581588745117188,102.89371948242189,2319110,28835,2089-11-13T12:00:00.000000000,14.586994171142578,120.83565521240234,Asia
Kushiro,Japan,42.9749595,144.3746911,198566,28.49970054626465,102.59892196655274,910942,11395,2083-11-25T12:00:00.000000000,42.84709930419922,144.26666259765625,Asia
Rotterdam,Netherlands,51.921915,4.4780285,1005000,28.47563743591309,102.51229476928712,590769,32267,2091-01-16T12:00:00.000000000,52.05623626708984,4.136029243469238,Europe
Zhongshan Station,Antarctica,-69.434063,76.3392981,60,28.46502113342285,102.47407608032226,6422960,10881,2083-09-22T06:00:00.000000000,-69.42002868652344,76.36363983154297,Antarctica
Toamasina,Madagascar,-18.1817985,49.4049841,210226,28.4600830078125,102.456298828125,4501083,29351,2090-01-17T00:00:00.000000000,-18.31282997131348,49.482421875,Africa
Karachi,Pakistan,24.8719381,66.9880631,12130000,28.42959976196289,102.3465591430664,1724875,25824,2088-11-02T03:00:00.000000000,24.99121284484864,66.94294738769531,Asia
Hopedale,Canada,55.4499603,-60.216671,442,28.41410255432129,102.29076919555663,490669,17507,2085-12-28T12:00:00.000000000,55.50087738037109,299.81817626953125,North America
Coral Gables,United States of America,25.7154187,-80.2910787,150000,28.409303665161133,102.27349319458008,1693780,25268,2088-08-24T15:00:00.000000000,25.6239013671875,279.7826232910156,North America
Trincomalee,Sri Lanka,8.568999,81.2330016,108420,28.383777618408203,102.18159942626951,2699174,2807,2080-12-17T00:00:00.000000000,8.61159896850586,81.32530212402344,Asia
Artigas Base,Antarctica,-62.1738867,-58.8638641,60,28.214080810546875,101.57069091796876,6280259,33825,2091-07-30T06:00:00.000000000,-62.17926025390625,301.2749938964844,Antarctica
Carlini Base,Antarctica,-62.2241439,-58.650476,60,28.214080810546875,101.57069091796876,6280259,33825,2091-07-30T06:00:00.000000000,-62.17926025390625,301.2749938964844,Antarctica
King Sejong Station,Antarctica,-62.2248534,-58.7715988,90,28.214080810546875,101.57069091796876,6280259,33825,2091-07-30T06:00:00.000000000,-62.17926025390625,301.2749938964844,Antarctica
Nikolski,United States of America,52.9384341,-168.8676876,18,28.11292266845703,101.20652160644532,566074,35045,2091-12-29T18:00:00.000000000,52.89982223510742,191.16542053222656,North America
Sasebo,Japan,33.1631295,129.7177046,237444,28.10669136047364,101.18408889770508,1324696,25459,2088-09-17T12:00:00.000000000,33.07556915283203,129.58230590820312,Asia
Napier,New Zealand,-39.4900014,176.926451,57800,28.10591697692871,101.18130111694336,5557128,12979,2084-06-10T12:00:00.000000000,-39.54305648803711,177.00831604003906,Oceania
Ayan,Russia,56.4542411,138.1673305,1286,28.102813720703125,101.17012939453126,464384,21085,2087-03-20T18:00:00.000000000,56.41476058959961,138.1742706298828,Europe
Eureka,United States of America,40.79303883968144,-124.15037109618974,42398,28.0948429107666,101.14143447875976,991629,29046,2089-12-09T21:00:00.000000000,40.80843353271485,235.8664703369141,North America
Arcata,United States of America,40.86270620639123,-124.08275707642164,20905,28.0948429107666,101.14143447875976,991629,29046,2089-12-09T21:00:00.000000000,40.80843353271485,235.8664703369141,North America
Waitangi,Chatham Islands,-44.03266464895095,-176.35075368252146,300,28.08975410461425,101.12311477661132,5731185,36427,2092-06-19T12:00:00.000000000,-43.97187805175781,183.6874084472656,Oceania
Kitty Hawk,United States of America,36.0773185,-75.7047179,3413,28.018112182617188,100.86520385742188,1192823,9066,2083-02-07T09:00:00.000000000,36.02811813354492,284.3393859863281,North America
Channel-Port aux Basques,Canada,47.5670048,-59.1500436,4220,28.003559112548828,100.81281280517578,740104,11778,2084-01-12T09:00:00.000000000,47.5571174621582,300.7894592285156,North America
Sandspit,Canada,53.2404053,-131.8332815,538,27.983293533325195,100.7398567199707,557811,37921,2092-12-23T06:00:00.000000000,53.1810188293457,228.23863220214844,North America
Oban,New Zealand,-46.8876496,168.1665937,310,27.933927536010746,100.56213912963868,5835791,27801,2089-07-07T06:00:00.000000000,-46.854129791259766,168.20388793945312,Oceania
Hooper Bay,United States of America,61.5310879,-166.0965648,1079,27.921554565429688,100.51759643554688,334585,17057,2085-11-02T06:00:00.000000000,61.54656982421875,193.8630828857422,North America
Sanya,China,18.2591045,109.5040317,362689,27.861440658569336,100.3011863708496,2104509,7942,2082-09-19T21:00:00.000000000,18.172231674194336,109.5614013671875,Asia
Magong,Taiwan,23.5666667,119.5833333,56435,27.81534004211425,100.13522415161133,1804323,13330,2084-07-24T09:00:00.000000000,23.514938354492188,119.6526336669922,Asia
San Sebastián,Spain,43.3203906,-1.9799931,357468,27.796775817871094,100.06839294433594,891057,11960,2084-02-04T03:00:00.000000000,43.40948867797852,357.9760131835937,Europe
Kōchi,Japan,33.5624333,133.5375232,335570,27.779464721679688,100.00607299804688,1305272,35251,2092-01-24T12:00:00.000000000,33.49736404418945,133.66336059570312,Asia
Matsuyama,Japan,33.8455426,132.765839,533541,27.74532127380371,99.88315658569336,1285946,22677,2087-10-05T18:00:00.000000000,33.91915512084961,132.6433868408203,Asia
Vilanculos,Mozambique,-21.9995499,35.3165934,177,27.739208221435547,99.86114959716797,4708590,29480,2090-02-02T03:00:00.000000000,-21.96836471557617,35.37036895751953,Africa
Sittwe,Myanmar,20.1399968,92.8800048,179032,27.73604393005371,99.84975814819336,1994994,15834,2085-06-02T09:00:00.000000000,20.07029914855957,92.79279327392578,Asia
Tomakomai,Japan,42.6504057,141.5500057,174806,27.70892906188965,99.75214462280272,921753,14938,2085-02-10T09:00:00.000000000,42.56590270996094,141.69366455078125,Asia
Norfolk,United States of America,36.8499587,-76.2800057,1047869,27.683643341064453,99.66111602783204,1149963,20633,2087-01-23T06:00:00.000000000,37.01230239868164,283.8918151855469,North America
Taichung,Taiwan,24.1520775,120.681667,2629323,27.65017318725586,99.54062347412108,1759029,13329,2084-07-24T06:00:00.000000000,24.358522415161133,120.60767364501952,Asia
Mar de Ajó,Argentina,-36.7162227,-56.6766028,13610,27.599470138549805,99.3580924987793,5439476,20357,2086-12-19T18:00:00.000000000,-36.73110580444336,303.3070983886719,South America
Matsue,Japan,35.466994,133.0666475,156811,27.59723281860352,99.35003814697266,1213237,25464,2088-09-18T03:00:00.000000000,35.53602600097656,133.20924377441406,Asia
New Haven,United States of America,41.3303829,-72.9000053,846766,27.557971954345703,99.20869903564451,975200,2571,2080-11-17T12:00:00.000000000,41.230228424072266,287.2779235839844,North America
Phan Thiet,Vietnam,10.933737,108.1000577,336846,27.555727005004883,99.20061721801758,2552857,17160,2085-11-15T03:00:00.000000000,10.861159324645996,108.07964324951172,Asia
Pasay City,Philippines,14.5504413,120.9999939,403064,27.54318618774414,99.15547027587893,2314805,28835,2089-11-13T12:00:00.000000000,14.657293319702148,120.86431121826172,Asia
Colonia del Sacramento,Uruguay,-34.469787716602944,-57.836116004496425,21714,27.500118255615234,99.00042572021484,5339925,14527,2084-12-21T00:00:00.000000000,-34.481544494628906,302.0780944824219,South America
Buenos Aires,Argentina,-34.61071459139255,-58.43251268766426,12795000,27.500118255615234,99.00042572021484,5339925,14527,2084-12-21T00:00:00.000000000,-34.481544494628906,302.0780944824219,South America
Miami Beach,United States of America,25.8099195,-80.1317811,407750,27.497896194458008,98.99242630004883,1690101,25269,2088-08-24T18:00:00.000000000,25.69420051574707,279.7932434082031,North America
Wick,United Kingdom,58.4332925,-3.0833625,7147,27.492826461791992,98.97417526245115,413085,8014,2082-09-28T21:00:00.000000000,58.38312530517578,357.02642822265625,Europe
Tórshavn,Faroe Islands,62.0300238,-6.8200336,14398,27.4346923828125,98.764892578125,325553,26573,2089-02-03T18:00:00.000000000,61.96836471557617,353.0769348144531,Europe
Kirkwall,United Kingdom,58.9669808,-2.9500114,8500,27.406980514526367,98.66512985229492,398670,11411,2083-11-27T12:00:00.000000000,58.94551849365234,357.1748962402344,Europe
Akita,Japan,39.7099909,140.0899914,320069,27.3798828125,98.567578125,1036440,25141,2088-08-08T18:00:00.000000000,39.68365478515625,140.0,Asia
Bhavnagar,India,21.7784239,72.1299536,554978,27.376651763916016,98.55594635009766,1896146,9959,2083-05-30T00:00:00.000000000,21.827768325805664,72.25872802734375,Asia
Sinop,Turkey,42.022998,35.1530015,34834,27.359027862548828,98.49250030517578,942792,390,2080-02-18T21:00:00.000000000,42.00351333618164,35.109169006347656,Asia
Rio Grande,Argentina,-53.7914455,-67.6989952,31095,27.33438873291016,98.40379943847655,6059569,32614,2091-02-28T21:00:00.000000000,-53.743408203125,292.3269348144531,South America
Vigan,Philippines,17.574727,120.3869047,48545,27.31874084472656,98.34746704101563,2137587,2442,2080-11-01T09:00:00.000000000,17.60984230041504,120.3771743774414,Asia
Zhuhai,China,22.2788903,113.5658319,1023000,27.29812240600586,98.2732406616211,1865561,37198,2092-09-23T21:00:00.000000000,22.39015769958496,113.7577667236328,Asia
Sapporo,Japan,43.0769251,141.3380985,2544000,27.292116165161133,98.25161819458008,894794,35064,2092-01-01T03:00:00.000000000,43.268890380859375,141.25559997558594,Asia
Tralee,Ireland,52.2666921,-9.7166527,26384,27.27878761291504,98.20363540649414,584181,67,2080-01-09T12:00:00.000000000,52.337432861328125,350.1666564941406,Europe
Shenzhen,China,22.54809707412332,114.06115351896275,7581000,27.272092819213867,98.17953414916992,1865562,37198,2092-09-23T21:00:00.000000000,22.39015769958496,113.8509292602539,Asia
Dublin,Ireland,53.34673124898314,-6.256979517281132,1059000,27.263124465942383,98.14724807739258,556437,17698,2086-01-21T09:00:00.000000000,53.25131607055664,354.02276611328125,Europe
Hampton,United States of America,37.0300252,-76.3499498,366766,27.237335205078125,98.05440673828126,1146930,23219,2087-12-12T12:00:00.000000000,37.08259963989258,283.6723937988281,North America
Chongjin,North Korea,41.7846188,129.79,672614,27.22296142578125,98.0026611328125,949019,35254,2092-01-24T21:00:00.000000000,41.8629150390625,129.97097778320312,Asia
Base Presidente Montalva,Antarctica,-62.1827436,-58.9076523,150,27.20550346374512,97.93981246948242,6281855,33825,2091-07-30T06:00:00.000000000,-62.24955749511719,301.1278076171875,Antarctica
Escudero Base,Antarctica,-62.1949625,-58.9526658,20,27.20550346374512,97.93981246948242,6281855,33825,2091-07-30T06:00:00.000000000,-62.24955749511719,301.1278076171875,Antarctica
Great Wall Station,Antarctica,-62.21632,-58.9666956,40,27.20550346374512,97.93981246948242,6281855,33825,2091-07-30T06:00:00.000000000,-62.24955749511719,301.1278076171875,Antarctica
Mountain Village,United States of America,62.0855243,-163.729009,755,27.087984085083008,97.51674270629884,323241,2985,2081-01-08T06:00:00.000000000,62.03866195678711,196.34327697753903,North America
Exmouth,Australia,-21.9310999,114.1233469,1085,27.03444480895996,97.32400131225586,4709441,35093,2092-01-04T18:00:00.000000000,-21.96836471557617,114.16666412353516,Oceania
Mekoryuk,United States of America,60.3886467,-166.1899372,99,27.03156471252441,97.31363296508788,361275,17057,2085-11-02T06:00:00.000000000,60.42179107666016,193.76470947265625,North America
Reynosa,Mexico,26.079996,-98.3000312,498654,27.00185775756836,97.2066879272461,1667927,25462,2088-09-17T21:00:00.000000000,26.115991592407227,261.7196044921875,North America
McAllen,United States of America,26.2030375,-98.2297254,364004,27.00185775756836,97.2066879272461,1667927,25462,2088-09-17T21:00:00.000000000,26.115991592407227,261.7196044921875,North America
Wilmington,United States of America,34.2255194,-77.9450204,161560,26.939441680908203,96.98199005126952,1277669,31796,2090-11-18T15:00:00.000000000,34.13005065917969,282.1651916503906,North America
Petropavlovsk-Kamchatsky,Russia,53.0619924,158.6230204,187282,26.934553146362305,96.9643913269043,563757,34934,2091-12-15T21:00:00.000000000,52.970123291015625,158.8135528564453,Europe
Port-Menier,Canada,49.8225777,-64.347995,263,26.930015563964844,96.94805603027343,664252,26353,2089-01-07T06:00:00.000000000,49.806678771972656,295.625,North America
Trout River,Canada,49.4836579,-58.1166441,452,26.929994583129883,96.9479804992676,673545,29398,2090-01-22T21:00:00.000000000,49.525482177734375,301.8103332519531,North America
Messina,Italy,38.2004706,15.5499963,252026,26.914867401123047,96.89352264404296,1102699,26079,2088-12-04T00:00:00.000000000,38.0667839050293,15.383580207824709,Europe
Hsinchu,Taiwan,24.8167914,120.9767395,750000,26.904624938964844,96.85664978027344,1729149,36842,2092-08-10T09:00:00.000000000,24.920913696289062,120.87096405029295,Asia
Zhubei,Taiwan,24.8333333,121.0119444,200000,26.904624938964844,96.85664978027344,1729149,36842,2092-08-10T09:00:00.000000000,24.920913696289062,120.87096405029295,Asia
New Plymouth,New Zealand,-39.0556393,174.0748125,52500,26.89824867248535,96.83369522094726,5536790,12977,2084-06-10T06:00:00.000000000,-39.05096435546875,174.07408142089844,Oceania
Otaru,Japan,43.1887191,140.9783093,143792,26.8861141204834,96.79001083374024,894792,35064,2092-01-01T03:00:00.000000000,43.268890380859375,140.98654174804688,Asia
Sendai,Japan,38.2684409197744,140.86966685536837,2250000,26.861473083496094,96.70130310058596,1097802,31261,2090-09-12T18:00:00.000000000,38.20738220214844,141.13360595703125,Asia
Ōita,Japan,33.243228,131.5978999,448907,26.79880142211914,96.4756851196289,1314967,22677,2087-10-05T18:00:00.000000000,33.286468505859375,131.72625732421875,Asia
Antalaha,Madagascar,-14.8833435,50.2833284,47224,26.7916316986084,96.44987411499024,4295516,35464,2092-02-20T03:00:00.000000000,-14.868189811706545,50.32618713378906,Africa
Batticaloa,Sri Lanka,7.7170083,81.7000154,129222,26.78631401062012,96.43073043823244,2755231,14199,2084-11-10T00:00:00.000000000,7.768013954162598,81.79727172851562,Asia
Hachinohe,Japan,40.5099937,141.5400321,239046,26.75985145568848,96.33546524047853,999357,22685,2087-10-06T18:00:00.000000000,40.597537994384766,141.68316650390625,Asia
Bar Harbor,United States of America,44.3878965,-68.2043746,6090,26.74366950988769,96.2772102355957,856205,37222,2092-09-26T21:00:00.000000000,44.32337188720703,291.8807373046875,North America
Dudinka,Russia,69.4182033,86.2250105,23619,26.738222122192383,96.25759963989258,177258,18108,2086-03-13T15:00:00.000000000,69.3497314453125,86.37583923339844,Europe
Kawasaki,Japan,35.5299876,139.705002,1437266,26.7338809967041,96.24197158813476,1222656,25622,2088-10-07T21:00:00.000000000,35.325130462646484,139.48849487304688,Asia
Edinburg,United States of America,26.3031865,-98.1599622,150000,26.724998474121094,96.20999450683594,1664276,25462,2088-09-17T21:00:00.000000000,26.1862907409668,261.7105407714844,North America
Reykjavík,Iceland,64.14345946317033,-21.93654600902505,166212,26.70863914489746,96.15110092163086,278872,104,2080-01-14T03:00:00.000000000,64.07732391357422,337.8016052246094,Europe
Culiacán,Mexico,24.8319406,-107.3819138,809000,26.70264434814453,96.12951965332032,1741690,8266,2082-10-30T09:00:00.000000000,24.71001625061035,252.54019165039065,North America
Reggio di Calabria,Italy,38.1149978,15.6413602,180353,26.69264030456543,96.09350509643556,1105672,23869,2088-03-02T18:00:00.000000000,37.99648284912109,15.48387050628662,Europe
Nakhodka,Russia,42.8374485,132.8874336,159551,26.628307342529297,95.86190643310547,913557,35256,2092-01-25T03:00:00.000000000,42.77680206298828,132.73667907714844,Europe
Kaikoura,New Zealand,-42.4011806,173.6896859,2172,26.57404136657715,95.66654891967774,5669424,11029,2083-10-10T18:00:00.000000000,-42.35500717163086,173.6656951904297,Oceania
Peter I Island,Antarctica,-68.7951614,-90.584203,1,26.54756546020508,95.57123565673828,6413973,13386,2084-07-31T09:00:00.000000000,-68.8576431274414,269.40985107421875,Antarctica
Swansea,United Kingdom,51.6299868,-3.9500021,294339,26.53824043273925,95.53766555786132,608239,69,2080-01-09T18:00:00.000000000,51.56414794921875,355.91650390625,Europe
Toliara,Madagascar,-23.3568314,43.6899841,115319,26.536975860595703,95.53311309814454,4778042,26593,2089-02-06T06:00:00.000000000,-23.23374366760254,43.58490753173828,Africa
Invercargill,New Zealand,-46.4094366,168.3650058,49200,26.532028198242188,95.51530151367189,5820887,13955,2084-10-10T12:00:00.000000000,-46.43233489990234,168.3173065185547,Oceania
Porto,Portugal,41.1519522,-8.6219471,1337000,26.51192283630371,95.44292221069335,972903,35369,2092-02-08T06:00:00.000000000,41.3005256652832,351.09039306640625,Europe
Biarritz,France,43.4732754,-1.5615949,145348,26.49916648864746,95.39699935913086,885728,11960,2084-02-04T03:00:00.000000000,43.550086975097656,358.3759460449219,Europe
Anadyr,Russia,64.7369904,177.4749963,10332,26.48597717285156,95.34951782226562,264942,17642,2086-01-14T09:00:00.000000000,64.71001434326172,177.5274658203125,Europe
Ugolnye Kopi,Russia,64.7332955,177.6999955,3367,26.48073959350586,95.33066253662108,264943,17642,2086-01-14T09:00:00.000000000,64.71001434326172,177.77471923828125,Europe
Taipei,Taiwan,25.0358333,121.5683333,6900273,26.45085334777832,95.22307205200195,1714309,36840,2092-08-10T03:00:00.000000000,25.20210838317871,121.3930892944336,Asia
New Taipei,Taiwan,25.0127778,121.465,3893740,26.45085334777832,95.22307205200195,1714309,36840,2092-08-10T03:00:00.000000000,25.20210838317871,121.3930892944336,Asia
Blackpool,United Kingdom,53.8303951,-3.0500053,272792,26.44986724853516,95.21952209472656,535554,17699,2086-01-21T12:00:00.000000000,53.95430374145508,356.8665466308594,Europe
Makarov,Russia,48.6337356,142.8000069,6663,26.44633102416992,95.20679168701172,703013,23335,2087-12-27T00:00:00.000000000,48.61159896850586,142.81619262695312,Europe
Palm Coast,United States of America,29.5380019,-81.2232957,48577,26.417573928833008,95.10326614379883,1493901,25277,2088-08-25T18:00:00.000000000,29.56063270568848,278.8541564941406,North America
Shanghai,China,31.2183983,121.4345588,14987000,26.415861129760746,95.09710006713868,1410618,7484,2082-07-24T15:00:00.000000000,31.247802734375,121.92857360839844,Asia
Sakata,Japan,38.9200391,139.8500577,100446,26.36827278137207,94.92578201293944,1065433,26723,2089-02-22T12:00:00.000000000,38.98066711425781,139.6849365234375,Asia
Ust-Kamchatsk,Russia,56.2135055,162.4349841,4939,26.36639404296875,94.9190185546875,468378,26108,2088-12-07T15:00:00.000000000,56.27416229248047,162.52066040039062,Europe
Yangmei,Taiwan,24.9166667,121.15,175000,26.34250259399414,94.83300933837891,1725433,36841,2092-08-10T06:00:00.000000000,24.99121284484864,121.0010757446289,Asia
Waitakere,New Zealand,-36.8524493,174.5542788,208100,26.298234939575195,94.6736457824707,5447511,36423,2092-06-19T00:00:00.000000000,-36.94200134277344,174.4268798828125,Oceania
Port Lavaca,United States of America,28.6160169,-96.6296938,11743,26.254148483276367,94.51493453979492,1542542,34182,2091-09-12T21:00:00.000000000,28.57644844055176,263.43963623046875,North America
Zonguldak,Turkey,41.4303768,31.7800134,156918,26.25097274780273,94.50350189208984,962089,388,2080-02-18T15:00:00.000000000,41.51142120361328,31.772335052490234,Asia
Fukui,Japan,36.0704197,136.2200468,248707,26.24693298339844,94.48895874023438,1188466,22682,2087-10-06T09:00:00.000000000,36.098419189453125,136.10894775390625,Asia
Niigata,Japan,37.9199968,139.0400297,569797,26.216636657714844,94.37989196777345,1109671,3677,2081-04-04T18:00:00.000000000,37.92618560791016,139.04698181152344,Asia
Hà Tĩnh,Vietnam,18.3337763,105.900037,165396,26.1196403503418,94.03070526123048,2092177,7949,2082-09-20T18:00:00.000000000,18.38312721252441,106.01173400878906,Asia
Mar del Plata,Argentina,-38.0000203,-57.5799844,555897,26.11387825012207,94.00996170043946,5496634,33190,2091-05-11T21:00:00.000000000,-38.0667839050293,302.5841064453125,South America
Lorient,France,47.7504045,-3.3665752,84952,26.099010467529297,93.95643768310548,735621,11914,2084-01-29T09:00:00.000000000,47.697715759277344,356.58416748046875,Europe
St. John's,Canada,47.5849882,-52.6810069,131469,26.092958450317383,93.93465042114258,742584,32753,2091-03-18T06:00:00.000000000,47.48681640625,307.38916015625,North America
Iwaki,Japan,37.0553467,140.8900459,357309,26.092498779296875,93.93299560546876,1148760,35389,2092-02-10T18:00:00.000000000,37.01230239868164,141.05540466308594,Asia
Huangyan,China,28.65002,121.2500044,198713,26.08523941040039,93.9068618774414,1541156,19307,2086-08-10T12:00:00.000000000,28.57644844055176,121.3667449951172,Asia
Ayr,United Kingdom,55.4503996,-4.6166797,69042,26.08145332336425,93.89323196411134,492958,35472,2092-02-21T03:00:00.000000000,55.43058013916016,355.2822570800781,Europe
Wellington,New Zealand,-41.2920679923151,174.77720094690068,393400,26.080188751220703,93.88867950439452,5630847,11029,2083-10-10T18:00:00.000000000,-41.370826721191406,174.69827270507812,Oceania
Fort Lauderdale,United States of America,26.1360649,-80.1417855,2042042,26.075693130493164,93.8724952697754,1664461,25269,2088-08-24T18:00:00.000000000,26.1862907409668,279.96710205078125,North America
Mtwara,Tanzania,-10.2696199,40.189991,96602,26.07547950744629,93.87172622680664,4007865,683,2080-03-26T12:00:00.000000000,-10.2987699508667,40.25483322143555,Africa
Patra,Greece,38.2300037,21.7299808,163360,26.06434631347656,93.83164672851562,1093858,18123,2086-03-15T12:00:00.000000000,38.277679443359375,21.64864921569824,Europe
Tofino,Canada,49.0986157,-125.8621245,1655,26.03839111328125,93.7382080078125,687104,25984,2088-11-22T03:00:00.000000000,49.10369110107422,234.0614318847656,North America
Montevideo,Uruguay,-34.90537638970807,-56.18682337831074,1513000,26.017322540283203,93.66236114501952,5362063,33554,2091-06-26T09:00:00.000000000,-34.973636627197266,303.621337890625,South America
Liverpool,United Kingdom,53.405068298036525,-2.961934009816594,811000,25.99243927001953,93.57278137207032,548046,17699,2086-01-21T12:00:00.000000000,53.53251266479492,356.9024963378906,Europe
Pingzhen,Taiwan,24.9438889,121.2161111,201632,25.98661994934082,93.55183181762696,1721721,36841,2092-08-10T06:00:00.000000000,25.06151008605957,121.13146209716795,Asia
Gijón,Spain,43.5300161,-5.6700004,335972,25.97566795349121,93.51240463256836,883038,17728,2086-01-25T03:00:00.000000000,43.620384216308594,354.3072204589844,Europe
Vladivostok,Russia,43.1300147,131.9100256,587022,25.975465774536133,93.51167678833008,902769,5988,2082-01-18T15:00:00.000000000,43.0579948425293,131.91964721679688,Europe
Visby,Sweden,57.6336513,18.3000093,22593,25.964500427246094,93.47220153808594,429718,19941,2086-10-28T18:00:00.000000000,57.680137634277344,18.232759475708008,Europe
Douglas,Isle of Man,54.14912168202999,-4.480269097598402,35854,25.94172096252441,93.3901954650879,529354,17675,2086-01-18T12:00:00.000000000,54.16519927978516,355.4474792480469,Europe
Punta del Este,Uruguay,-34.9699727,-54.9499899,159000,25.94041633605957,93.38549880981444,5362075,9086,2083-02-09T21:00:00.000000000,-34.973636627197266,304.99365234375,South America
Maldonado,Uruguay,-34.9100281,-54.9599893,55478,25.94041633605957,93.38549880981444,5362075,9086,2083-02-09T21:00:00.000000000,-34.973636627197266,304.99365234375,South America
Moroni,Comoros,-11.7041577,43.2402441,128698,25.92173194885254,93.31823501586916,4098174,679,2080-03-26T00:00:00.000000000,-11.704745292663574,43.30948257446289,Africa
Cold Bay,United States of America,55.2000014,-162.7150916,200,25.92026138305664,93.31294097900393,498058,17425,2085-12-18T06:00:00.000000000,55.21968078613281,197.31463623046875,North America
Boyarka,Russia,70.7669841,97.5000329,35968,25.89944648742676,93.23800735473633,153164,9633,2083-04-19T06:00:00.000000000,70.82600402832031,97.4729232788086,Europe
Fox Bay,Falkland Islands,-51.95059,-60.0869631,120,25.867862701416016,93.12430572509766,6006396,33412,2091-06-08T15:00:00.000000000,-51.985939025878906,299.8899230957031,South America
New Bedford,United States of America,41.6561253,-70.9446983,136082,25.860248565673828,93.0968948364258,961299,2571,2080-11-17T12:00:00.000000000,41.58172225952149,289.22076416015625,North America
Kuujjuarapik,Canada,55.2814952,-77.7658324,1243,25.84995079040528,93.05982284545898,496533,11112,2083-10-21T03:00:00.000000000,55.289981842041016,282.1084289550781,North America
Cabo San Lucas,Mexico,22.8927562,-109.9045164,42601,25.81943702697754,92.94997329711914,1836234,5146,2081-10-05T09:00:00.000000000,22.95254707336425,250.08351135253903,North America
Liepaga,Latvia,56.5099732,21.0100248,85132,25.80655670166016,92.90360412597656,461832,19942,2086-10-28T21:00:00.000000000,56.48506164550781,20.95634078979492,Europe
Incheon,South Korea,37.4780937,126.6402876,2550000,25.802600860595703,92.88936309814451,1127515,19326,2086-08-12T21:00:00.000000000,37.50439453125,126.43142700195312,Asia
Tazovsky,Russia,67.4666687,78.6999918,5981,25.8000545501709,92.88019638061525,210844,18106,2086-03-13T09:00:00.000000000,67.45166778564453,78.64615631103516,Europe
Daytona Beach,United States of America,29.2105542,-81.0230754,216890,25.794822692871094,92.86136169433594,1507763,25277,2088-08-25T18:00:00.000000000,29.279436111450195,279.020751953125,North America
Mokpo,South Korea,34.8068018,126.3958402,268402,25.79450035095215,92.86020126342774,1244531,19545,2086-09-09T06:00:00.000000000,34.833038330078125,126.27376556396484,Asia
Guerrero Negro,Mexico,27.990422,-114.1699669,13054,25.79048538208008,92.84574737548829,1574146,13999,2084-10-16T00:00:00.000000000,27.94375991821289,245.74972534179688,North America
Marseille,France,43.2919249,5.3730643,1400000,25.73749732971192,92.6549903869629,899140,129,2080-01-17T06:00:00.000000000,43.1282958984375,5.365126609802246,Europe
Iraklio,Greece,35.325013,25.1304968,137154,25.7347469329834,92.64508895874025,1218537,888,2080-04-21T03:00:00.000000000,35.39543151855469,25.00640296936035,Europe
Pescara,Italy,42.4554305,14.2186564,314789,25.7251091003418,92.61039276123049,923508,34728,2091-11-20T03:00:00.000000000,42.49560546875,14.29411792755127,Europe
Kumamoto,Japan,32.8009294,130.700642,718232,25.71441650390625,92.5718994140625,1341032,25460,2088-09-17T15:00:00.000000000,32.72407531738281,130.54945373535156,Asia
Port Heiden,United States of America,56.9490936,-158.6268915,102,25.681814193725582,92.45453109741212,449424,11254,2083-11-07T21:00:00.000000000,56.977149963378906,201.2658233642578,North America
Orcadas Station,Antarctica,-60.7328963,-44.7333008,45,25.681095123291016,92.45194244384766,6247551,7183,2082-06-17T00:00:00.000000000,-60.773284912109375,315.2142944335937,Antarctica
Vigo,Spain,42.2200185,-8.7299945,378952,25.66263008117676,92.38546829223633,931505,32401,2091-02-02T06:00:00.000000000,42.35500717163086,351.1583557128906,Europe
Nakhodka,Russia,67.7503982,77.5199605,159551,25.63104248046875,92.27175292968752,206962,18106,2086-03-13T09:00:00.000000000,67.66255950927734,77.70186614990234,Europe
Santa Rosalía,Mexico,27.3170781,-112.2833637,11899,25.60009956359864,92.16035842895508,1602684,28137,2089-08-18T06:00:00.000000000,27.3813705444336,247.7765350341797,North America
Kullorsuaq,Greenland,74.5780629,-57.224986,450,25.569774627685547,92.05118865966796,99722,19808,2086-10-12T03:00:00.000000000,74.62213897705078,302.6905822753906,North America
Höfn,Iceland,64.2723151,-15.2138595,1695,25.55342674255371,91.99233627319336,275921,17371,2085-12-11T12:00:00.000000000,64.21792602539062,344.71697998046875,Europe
Ventspils,Latvia,57.3898678,21.5605855,42884,25.53291130065918,91.91848068237304,439056,32250,2091-01-14T09:00:00.000000000,57.328643798828125,21.492536544799805,Europe
Norilsk,Russia,69.3400169,88.2249918,165873,25.527870178222656,91.90033264160157,176074,18108,2086-03-13T15:00:00.000000000,69.42002868652344,87.8787841796875,Europe
Nord,Greenland,81.7166258,-17.8000352,10,25.512317657470703,91.84434356689454,30440,29360,2090-01-18T03:00:00.000000000,81.65201568603516,342.43902587890625,North America
Timmiarmiut,Greenland,62.5332748,-42.2167102,10,25.51096534729004,91.83947525024416,312615,14704,2085-01-12T03:00:00.000000000,62.53075408935547,317.8481140136719,North America
Tangier,Morocco,35.77592490288572,-5.806197897901798,750060,25.4983139038086,91.79393005371094,1199611,32604,2091-02-27T15:00:00.000000000,35.88751983642578,354.3023376464844,Africa
Pago Pago,American Samoa,-14.2766105,-170.7066451,12576,25.49281883239746,91.77414779663086,4258384,20696,2087-01-31T03:00:00.000000000,-14.23550033569336,189.3160858154297,Oceania
Farafangana,Madagascar,-22.816606,47.8332454,24764,25.47491455078125,91.7096923828125,4755111,35325,2092-02-02T18:00:00.000000000,-22.81195068359375,47.90625,Africa
Sand Point,United States of America,55.3397087,-160.4971908,667,25.470495223999023,91.69378280639648,494086,8562,2082-12-06T09:00:00.000000000,55.36027908325195,199.55734252929688,North America
Changhua,Taiwan,24.0734001,120.5134086,750000,25.44312858581543,91.59526290893557,1770299,13329,2084-07-24T06:00:00.000000000,24.14762687683105,120.4144515991211,Asia
Bandarbeyla,Somalia,9.4833087,50.8166809,13753,25.43916702270508,91.58100128173828,2643309,34948,2091-12-17T15:00:00.000000000,9.45518398284912,50.79130554199219,Africa
Proserpine,Australia,-20.4162357,148.5834781,3976,25.422168731689453,91.51980743408204,4623301,14708,2085-01-12T15:00:00.000000000,-20.42179298400879,148.58148193359375,Oceania
Kyaukphyu,Myanmar,19.4290132,93.5494036,4261,25.40742874145508,91.46674346923828,2031119,18616,2086-05-16T03:00:00.000000000,19.43760871887207,93.48213958740234,Asia
Caen,France,49.1837537,-0.3499893,190099,25.399070739746094,91.43665466308596,680903,32366,2091-01-28T21:00:00.000000000,49.3145866394043,359.8456115722656,Europe
Hue,Vietnam,16.4699882,107.5800378,950000,25.391447067260746,91.40920944213867,2199919,37406,2092-10-19T21:00:00.000000000,16.555360794067383,107.6739730834961,Asia
Stanley,Falkland Islands,-51.700011,-57.8499679,2213,25.382699966430664,91.3777198791504,5995467,33413,2091-06-08T18:00:00.000000000,-51.63444519042969,302.2363586425781,South America
San Martín Base,Antarctica,-68.1163216,-67.0999976,20,25.33359718322754,91.20094985961914,6401665,33820,2091-07-29T15:00:00.000000000,-68.15465545654297,292.8571472167969,Antarctica
Angra do Heroísmo,Portugal,38.6503915,-27.2166698,12045,25.302284240722656,91.08822326660156,1081658,432,2080-02-24T03:00:00.000000000,38.629173278808594,332.8163146972656,Europe
Nuussuaq,Greenland,74.1209687,-57.0673605,204,25.29800605773925,91.07282180786132,106998,19808,2086-10-12T03:00:00.000000000,74.05975341796875,303.11688232421875,North America
Chevery,Canada,50.4813231,-59.609783,284,25.27853775024414,91.0027359008789,643697,23414,2088-01-05T21:00:00.000000000,50.43936538696289,300.4761962890625,North America
Dieppe,France,49.9337337,1.0833341,42461,25.244308471679688,90.87951049804688,657771,32267,2091-01-16T12:00:00.000000000,49.94727325439453,1.097561001777649,Europe
Darnah,Libya,32.7648111,22.6391393,127974,25.20430374145508,90.73549346923828,1333509,11306,2083-11-14T09:00:00.000000000,32.86467361450195,22.582618713378903,Africa
Bethel,United States of America,60.7933034,-161.7557961,6228,25.20390510559082,90.73405838012695,351167,2983,2081-01-08T00:00:00.000000000,60.84358215332031,198.2577514648437,North America
Haarlem,Netherlands,52.3804319,4.629991,349957,25.195837020874023,90.70501327514648,577799,32266,2091-01-16T09:00:00.000000000,52.47803115844727,4.516728401184082,Europe
Port Burwell,Canada,60.2664622,-64.7410977,2762,25.175905227661133,90.63325881958008,366876,522,2080-03-06T09:00:00.000000000,60.21089553833008,295.233642578125,North America
Yarmouth,Canada,43.8307945,-66.1125812,7500,25.169443130493164,90.6099952697754,877285,12092,2084-02-20T15:00:00.000000000,43.76098251342773,293.7915344238281,North America
Hios,Greece,38.3681089,26.1358101,26891,25.167490005493164,90.6029640197754,1087987,92,2080-01-12T15:00:00.000000000,38.41827774047852,26.219512939453125,Europe
Halmstad,Sweden,56.6717721,12.8555871,55657,25.139652252197266,90.50274810791016,457952,19939,2086-10-28T12:00:00.000000000,56.62565612792969,12.776618003845217,Europe
Aleksandrovsk Sakhalinskiy,Russia,50.8974992,142.1561185,12024,25.12736892700196,90.45852813720704,626924,23336,2087-12-27T03:00:00.000000000,50.93145751953125,142.07142639160156,Europe
Poronaysk,Russia,49.2415538,143.0850024,16677,25.106733322143555,90.3842399597168,681833,2771,2080-12-12T12:00:00.000000000,49.244285583496094,143.1678009033203,Europe
Greymouth,New Zealand,-42.4716453,171.223143,10100,25.08853912353516,90.31874084472656,5672131,35320,2092-02-02T03:00:00.000000000,-42.42530822753906,171.14537048339844,Oceania
Karamay,China,45.589942,84.8599259,261445,25.08799171447754,90.31677017211916,808281,20847,2087-02-19T00:00:00.000000000,45.58875274658203,85.04717254638672,Asia
Nuuk,Greenland,64.1982815,-51.7326588,14798,25.07980728149414,90.28730621337893,277258,35844,2092-04-07T15:00:00.000000000,64.14762878417969,308.2257995605469,North America
Exeter,United Kingdom,50.7004053,-3.5299502,113118,25.068803787231445,90.2476936340332,639519,32265,2091-01-16T06:00:00.000000000,50.57996368408203,356.6548767089844,Europe
Tainan,Taiwan,23.0000031,120.2000427,1876312,25.035844802856445,90.1290412902832,1823373,13330,2084-07-24T09:00:00.000000000,23.16344451904297,119.96858978271484,Asia
Yangjiang,China,21.8504092,111.9700024,872363,25.032947540283203,90.11861114501951,1900474,17080,2085-11-05T03:00:00.000000000,21.757469177246094,112.06153869628906,Asia
San Francisco,United States of America,37.784262651527904,-122.39959956304556,3450000,25.0213623046875,90.076904296875,1122440,31526,2090-10-15T21:00:00.000000000,37.64498901367188,237.43658447265625,North America
Ponta Delgada,Portugal,37.7483018,-25.6665835,61526,25.01340675354004,90.04826431274414,1120250,23947,2088-03-12T12:00:00.000000000,37.71529006958008,334.2513427734375,Europe
New London,United States of America,41.3555235,-72.1000283,96178,24.99289894104004,89.97443618774415,972413,2571,2080-11-17T12:00:00.000000000,41.3005256652832,287.8192138671875,North America
Santa Cruz,United States of America,36.9719463,-122.0263904,148444,24.976055145263672,89.91379852294922,1155649,11676,2083-12-30T15:00:00.000000000,36.8717041015625,237.90789794921875,North America
Mendocino,United States of America,39.3077674,-123.7994308,548,24.9692440032959,89.88927841186523,1051662,8953,2083-01-24T06:00:00.000000000,39.33216094970703,236.1103515625,North America
Tuticorin,India,8.79780035089249,78.13179722903476,436094,24.96553611755371,89.87593002319336,2694489,2567,2080-11-17T00:00:00.000000000,8.68189811706543,78.21705627441406,Asia
Necochea,Argentina,-38.5599861,-58.7499905,80478,24.945362091064453,89.80330352783203,5520260,12682,2084-05-04T09:00:00.000000000,-38.629173278808594,301.2244873046875,South America
Ancona,Italy,43.6003736,13.4999406,100507,24.93739318847656,89.77461547851563,880523,34727,2091-11-20T00:00:00.000000000,43.620384216308594,13.41867446899414,Europe
La Coruña,Spain,43.3299766,-8.4199876,370610,24.936595916748047,89.77174530029298,891009,17725,2086-01-24T18:00:00.000000000,43.40948867797852,351.4992370605469,Europe
Ilhéus,Brazil,-14.7800423,-39.0500043,230622,24.92056465148925,89.71403274536134,4298744,36105,2092-05-10T06:00:00.000000000,-14.868189811706545,321.0810852050781,South America
Klaksvík,Faroe Islands,62.2374783,-6.5390115,4664,24.913982391357425,89.69033660888672,320731,620,2080-03-18T15:00:00.000000000,62.17926025390625,353.4750061035156,Europe
Kotzebue,United States of America,66.8986931,-162.5965975,3194,24.91119766235352,89.68031158447266,220472,28440,2089-09-25T03:00:00.000000000,66.9595718383789,197.34939575195312,North America
Oktyabrsky,Russia,52.663593,156.2387215,1534,24.899497985839844,89.63819274902345,574410,25981,2088-11-21T18:00:00.000000000,52.618629455566406,156.15672302246094,Europe
Auckland,New Zealand,-36.8480549,174.763027,1377200,24.89311408996582,89.61521072387696,5450546,15999,2085-06-23T00:00:00.000000000,-37.01230239868164,174.5382537841797,Oceania
Paraparaumu,New Zealand,-40.9034421,174.9989305,25263,24.861785888671875,89.50242919921875,5611263,35548,2092-03-01T15:00:00.000000000,-40.87873458862305,175.00711059570312,Oceania
Ulladulla,Australia,-35.3495361,150.4700297,9250,24.83948135375977,89.42213287353516,5376416,16652,2085-09-12T15:00:00.000000000,-35.325130462646484,150.53707885742188,Oceania
Gelendzhik,Russia,44.5747585,38.0643843,55508,24.80836296081543,89.31010665893555,846535,34728,2091-11-20T03:00:00.000000000,44.534271240234375,38.0184326171875,Europe
Oshawa,Canada,43.8799947,-78.8499781,450963,24.79420661926269,89.2591438293457,877192,8682,2082-12-21T09:00:00.000000000,43.76098251342773,281.1480407714844,North America
La Cruz,Mexico,23.920412,-106.900023,11900,24.77806663513184,89.20103988647462,1786777,8266,2082-10-30T09:00:00.000000000,23.866432189941406,253.0476226806641,North America
Karluk,United States of America,57.5722856,-154.4550273,96,24.777238845825195,89.1980598449707,432542,3532,2081-03-17T15:00:00.000000000,57.609840393066406,205.5483856201172,North America
Tuktoyaktuk,Canada,69.4547746,-133.0492013,929,24.747772216796875,89.09197998046875,175346,24001,2088-03-19T06:00:00.000000000,69.4903335571289,226.82432556152344,North America
Argentia,Canada,47.3004319,-53.9899968,1063,24.742584228515625,89.07330322265625,747457,26323,2089-01-03T12:00:00.000000000,47.346221923828125,305.9410705566406,North America
San Salvador,El Salvador,13.703280259193864,-89.2155758045276,1433000,24.736234664916992,89.05044479370117,2385987,32200,2091-01-08T03:00:00.000000000,13.532512664794922,270.5769348144531,North America
Upernavik,Greenland,72.7093667,-56.1416753,1129,24.73188591003418,89.03478927612305,126307,24194,2088-04-12T09:00:00.000000000,72.65377807617188,303.7051696777344,North America
Aberdeen,United Kingdom,57.145133499698055,-2.105049991692299,189364,24.72079849243164,88.99487457275391,448354,17896,2086-02-15T03:00:00.000000000,57.04745101928711,358.0972595214844,Europe
Toulon,France,43.1341865,5.9188216,357693,24.701295852661133,88.92466506958009,901827,23755,2088-02-17T12:00:00.000000000,43.0579948425293,5.7589287757873535,Europe
Olongapo,Philippines,14.8295716,120.2827767,304388,24.700071334838867,88.92025680541992,2310496,28836,2089-11-13T15:00:00.000000000,14.727591514587402,120.22325897216795,Asia
Yakutat,United States of America,59.5473071,-139.7272183,109,24.68242454528809,88.8567283630371,383844,37902,2092-12-20T21:00:00.000000000,59.50790786743164,220.2739715576172,North America
Capitol Hill,Northern Mariana Islands,15.2112537,145.7505761,2500,24.677080154418945,88.83748855590821,2280802,30680,2090-07-02T03:00:00.000000000,15.219683647155762,145.78651428222656,Oceania
Haiphong,Vietnam,20.8319522,106.6781469,1969000,24.67563819885254,88.83229751586914,1959356,4964,2081-09-12T15:00:00.000000000,20.70298767089844,106.90908813476562,Asia
Shoyna,Russia,67.8666443,44.1333679,300,24.634990692138672,88.68596649169922,203000,11297,2083-11-13T06:00:00.000000000,67.87345886230469,44.01253890991211,Europe
Mys Shmidta,Russia,68.933711,-179.4999844,492,24.63277053833008,88.67797393798828,183580,35271,2092-01-27T00:00:00.000000000,68.99823760986328,180.59405517578125,Europe
Esbjerg,Denmark,55.4670394,8.4500162,72205,24.63251304626465,88.67704696655274,491046,17565,2086-01-04T18:00:00.000000000,55.43058013916016,8.346774101257324,Europe
Ürümqi,China,43.8069581,87.5730598,3575000,24.623409271240234,88.64427337646485,875767,21013,2087-03-11T18:00:00.000000000,43.76098251342773,87.41691589355469,Asia
Krasnogorsk,Russia,48.4615497,142.0899727,3304,24.61021041870117,88.59675750732423,710141,19565,2086-09-11T18:00:00.000000000,48.40070343017578,142.09732055664062,Europe
Pannawonica,Australia,-21.6365747,116.3250337,686,24.592845916748047,88.53424530029297,4693877,231,2080-01-30T00:00:00.000000000,-21.687170028686523,116.2807388305664,Oceania
Berbera,Somaliland,10.4355504,45.0164148,242344,24.589258193969727,88.52132949829102,2579247,7535,2082-07-31T00:00:00.000000000,10.439367294311523,44.9207763671875,Africa
Bol'sheretsk,Russia,52.4389813,156.3593859,10,24.58427619934082,88.50339431762696,578706,25981,2088-11-21T18:00:00.000000000,52.47803115844727,156.24534606933594,Europe
Kyoto,Japan,35.0319381,135.7480521,1805000,24.58402633666992,88.50249481201172,1244614,31258,2090-09-12T09:00:00.000000000,34.833038330078125,135.74143981933594,Asia
Rørvik,Norway,64.868016,11.2053003,2615,24.54781913757324,88.37214889526368,261369,34561,2091-10-30T06:00:00.000000000,64.85061645507812,11.18784523010254,Europe
Nevelsk,Russia,46.6802889,141.8699344,17000,24.52927017211914,88.30537261962891,768497,2770,2080-12-12T09:00:00.000000000,46.71353149414063,141.8225860595703,Europe
Horta,Portugal,38.5346559,-28.6447568,6611,24.49137687683105,88.1689567565918,1087537,431,2080-02-24T00:00:00.000000000,38.48857498168945,331.3025817871094,Europe
Keelung,Taiwan,25.1332579,121.7332824,500000,24.44769859313965,88.01171493530273,1721728,13330,2084-07-24T09:00:00.000000000,25.06151008605957,121.8103485107422,Asia
Uelen,Russia,66.1541393,-169.8105835,776,24.43130874633789,87.95271148681641,236671,32291,2091-01-19T12:00:00.000000000,66.1159896850586,190.2034912109375,Europe
Monterey,United States of America,36.6002582,-121.8935781,124288,24.414506912231445,87.89222488403321,1167844,23251,2087-12-16T12:00:00.000000000,36.59050750732422,237.95811462402344,North America
Paamiut,Greenland,62.0041024,-49.6350701,1862,24.39916610717773,87.83699798583984,323750,8295,2082-11-03T00:00:00.000000000,62.03866195678711,310.2984924316406,North America
Ningbo,China,29.8819166,121.5480919,1923000,24.397647857666016,87.83153228759765,1468303,7483,2082-07-24T12:00:00.000000000,30.052722930908203,121.7152862548828,Asia
Il'pyrskiy,Russia,59.9673883,164.1720053,10,24.34665298461914,87.64795074462891,373132,26107,2088-12-07T12:00:00.000000000,59.9296989440918,164.1666717529297,Europe
Ålesund,Norway,62.45979913939814,6.263280014851641,47772,24.34248733520508,87.63295440673828,311247,34560,2091-10-30T03:00:00.000000000,62.53075408935547,6.1518988609313965,Europe
Coatzacoalcos,Mexico,18.1204043,-94.4200096,287285,24.342432022094727,87.63275527954102,2102184,17253,2085-11-26T18:00:00.000000000,18.242530822753903,265.5219421386719,North America
Rijeka,Croatia,45.3299837,14.4500118,170992,24.33432579040528,87.60357284545898,820543,12274,2084-03-14T09:00:00.000000000,45.23725891113281,14.46177864074707,Europe
San Mateo,United States of America,37.54055384225283,-122.30321361997188,626406,24.33289337158203,87.59841613769531,1122441,31526,2090-10-15T21:00:00.000000000,37.64498901367188,237.55674743652344,North America
Oakland,United States of America,37.80472502788702,-122.27803818707952,1510271,24.33289337158203,87.59841613769531,1122441,31526,2090-10-15T21:00:00.000000000,37.64498901367188,237.55674743652344,North America
Keflavík,Iceland,64.0166467,-22.5665918,7930,24.31201362609864,87.52324905395508,278870,32545,2091-02-20T06:00:00.000000000,64.07732391357422,337.31903076171875,Europe
Severo Kurilsk,Russia,50.6904834,156.0850358,2422,24.30960464477539,87.5145767211914,633748,26732,2089-02-23T15:00:00.000000000,50.72056198120117,156.0213165283203,Europe
Coral Springs,United States of America,26.270837,-80.2708216,250000,24.299222946166992,87.47720260620117,1664460,25269,2088-08-24T18:00:00.000000000,26.1862907409668,279.868408203125,North America
Zvëzdnyj,Russia,70.9565849,-179.5899789,10,24.2900333404541,87.44412002563477,152313,35270,2092-01-26T21:00:00.000000000,70.89630889892578,180.3260803222656,Europe
Trepassey,Canada,46.736978,-53.3632909,398,24.28171157836914,87.4141616821289,769632,26322,2089-01-03T09:00:00.000000000,46.71353149414063,306.5806579589844,North America
Fort Severn,Canada,55.9833386,-87.6499836,125,24.27902603149414,87.40449371337891,476749,3677,2081-04-04T18:00:00.000000000,55.99296951293945,272.3975524902344,North America
Christiansted,United States Virgin Islands,17.7503752,-64.749986,32543,24.236875534057617,87.25275192260743,2135460,10563,2083-08-13T12:00:00.000000000,17.680139541625977,295.1790771484375,North America
Stavanger,Norway,58.9700039,5.6800044,173132,24.23175621032715,87.23432235717773,393371,17565,2086-01-04T18:00:00.000000000,59.08611297607422,5.472972869873047,Europe
Vila Velha,Brazil,-20.338046307430577,-40.290232724874905,1209091,24.2197380065918,87.19105682373048,4629166,35580,2092-03-05T15:00:00.000000000,-20.492090225219727,319.9395751953125,South America
Anchorage,United States of America,61.21400426552339,-149.8874464089115,260283,24.21042251586914,87.1575210571289,344548,31990,2090-12-12T21:00:00.000000000,61.124778747558594,209.92770385742188,North America
Đông Hà,Vietnam,16.8499981,107.1333007,17662,24.203733444213867,87.13344039916993,2178987,37408,2092-10-20T03:00:00.000000000,16.9068546295166,107.1551742553711,Asia
Ōtsu,Japan,35.006402,135.8674068,536976,24.191547393798828,87.08957061767579,1235168,31258,2090-09-12T09:00:00.000000000,35.04393768310547,136.03053283691406,Asia
Çanakkale,Turkey,40.1459332,26.4063879,87791,24.17156791687012,87.01764450073243,1018334,9280,2083-03-06T03:00:00.000000000,40.105445861816406,26.47058868408203,Asia
Boston,United States of America,42.331906,-71.0719595,4467000,24.169448852539062,87.01001586914063,931035,32300,2091-01-20T15:00:00.000000000,42.35500717163086,289.1348876953125,North America
Hastings,New Zealand,-39.6382031,176.8367996,66100,24.161062240600582,86.97982406616211,5560013,12980,2084-06-10T15:00:00.000000000,-39.61335754394531,176.87933349609375,Oceania
Kaesong,North Korea,37.9639992,126.5644087,338155,24.126428604125977,86.85514297485352,1112548,19326,2086-08-12T21:00:00.000000000,37.85588836669922,126.43431854248048,Asia
Zhanjiang,China,21.2019296,110.3780761,1590000,24.12278175354004,86.84201431274414,1939650,4959,2081-09-12T00:00:00.000000000,21.054481506347656,110.5583724975586,Asia
Atqasuk,United States of America,70.4693795,-157.395778,201,24.112436294555664,86.8047706604004,160209,23996,2088-03-18T15:00:00.000000000,70.40421295166016,202.5794982910156,North America
Gangneung,South Korea,37.7558724,128.8961527,180611,24.10972595214844,86.79501342773438,1115555,25131,2088-08-07T12:00:00.000000000,37.785587310791016,129.03614807128906,Asia
Trabzon,Turkey,40.9799909,39.7199939,764714,24.0905876159668,86.72611541748047,978868,392,2080-02-19T03:00:00.000000000,41.089630126953125,39.59999847412109,Asia
Gambell,United States of America,63.7797103,-171.7310787,681,24.05484962463379,86.59745864868164,285763,32522,2091-02-17T09:00:00.000000000,63.725833892822266,188.3333282470703,North America
Tununak,United States of America,60.5854867,-165.2557892,352,24.039772033691406,86.54317932128906,356197,17057,2085-11-02T06:00:00.000000000,60.63268661499024,194.71563720703125,North America
Kaitaia,New Zealand,-35.1099257,173.2726847,5202,24.02630424499512,86.49469528198243,5364069,1482,2080-07-04T09:00:00.000000000,-35.04393768310547,173.24427795410156,Oceania
Rizhao,China,35.4303813,119.4500109,865000,24.0029239654541,86.41052627563477,1222483,27727,2089-06-28T00:00:00.000000000,35.325130462646484,119.5780029296875,Asia
Hong Gai,Vietnam,20.9604118,107.1000154,172915,23.9973087310791,86.39031143188477,1947497,4964,2081-09-12T15:00:00.000000000,20.91388320922852,106.96048736572266,Asia
Veracruz,Mexico,19.1773423,-96.1599809,578963,23.987579345703125,86.35528564453125,2045145,5779,2081-12-23T12:00:00.000000000,19.226713180541992,263.94659423828125,North America
Galway,Ireland,53.272393,-9.0488123,75594,23.9741153717041,86.30681533813477,556419,67,2080-01-09T12:00:00.000000000,53.25131607055664,350.9487609863281,Europe
Tasiusaq,Greenland,73.3690023,-56.0598137,250,23.968162536621094,86.28538513183594,115490,19807,2086-10-12T00:00:00.000000000,73.42706298828125,303.75,North America
Capitan Arturo Prat Station,Antarctica,-62.4995068,-59.6833185,41,23.96739196777344,86.28261108398438,6286617,26952,2089-03-23T03:00:00.000000000,-62.46045303344727,300.2272644042969,Antarctica
Gdynia,Poland,54.5203788,18.5300211,314664,23.95083236694336,86.22299652099609,517210,19941,2086-10-28T18:00:00.000000000,54.516693115234375,18.742631912231445,Europe
Florianópolis,Brazil,-27.5780387,-48.5219664,1023000,23.93096923828125,86.1514892578125,5016821,1525,2080-07-09T18:00:00.000000000,-27.73286437988281,311.5617980957031,South America
Bodø,Norway,67.2764346,14.4292849,34073,23.926910400390625,86.13687744140626,213216,14191,2084-11-09T00:00:00.000000000,67.31106567382812,14.31192684173584,Europe
Puri,India,19.8204297,85.9000175,201026,23.92432403564453,86.12756652832032,2014943,28115,2089-08-15T12:00:00.000000000,19.71880531311035,85.96613311767578,Asia
Fort Pierce,United States of America,27.4467859,-80.3258053,228245,23.883852005004883,85.98186721801758,1599423,25271,2088-08-25T00:00:00.000000000,27.451669692993164,279.7651062011719,North America
Khatanga,Russia,72.041144,102.4650012,3205,23.88100242614746,85.97160873413087,134936,18111,2086-03-14T00:00:00.000000000,72.02108764648438,102.46154022216795,Europe
Westport,New Zealand,-41.7638418,171.6027921,3900,23.878332138061523,85.9619956970215,5644693,35319,2092-02-02T00:00:00.000000000,-41.72232055664063,171.5340118408203,Oceania
Helsinki,Finland,60.16380384948568,24.932456915043964,1115000,23.87373352050781,85.94544067382813,369021,8382,2082-11-13T21:00:00.000000000,60.07029724121094,25.325580596923828,Europe
Gunsan,South Korea,35.9817657,126.7160215,244080,23.87002944946289,85.9321060180664,1194559,25130,2088-08-07T09:00:00.000000000,35.957820892333984,126.5588607788086,Asia
Kaiapoi,New Zealand,-43.3813114,172.6510357,10200,23.864818572998047,85.91334686279298,5709888,4899,2081-09-04T12:00:00.000000000,-43.40948867797852,172.71363830566406,Oceania
Christchurch,New Zealand,-43.5350216,172.6300232,363200,23.864818572998047,85.91334686279298,5709888,4899,2081-09-04T12:00:00.000000000,-43.40948867797852,172.71363830566406,Oceania
Port Elizabeth,South Africa,-33.9680879,25.598083,1021000,23.856433868408203,85.88316192626954,5318348,16661,2085-09-13T18:00:00.000000000,-34.05975341796875,25.64999961853028,Africa
Vishakhapatnam,India,17.68290316150216,83.21984846162533,1529000,23.84223175048828,85.83203430175782,2124776,22991,2087-11-14T00:00:00.000000000,17.820737838745117,83.45295715332031,Asia
Ittoqqortoormiit,Greenland,70.483358,-21.9666543,469,23.838565826416016,85.81883697509765,159503,23639,2088-02-03T00:00:00.000000000,70.4745101928711,337.9787292480469,North America
Dalian,China,38.9247843,121.627885,3167000,23.838520050048828,85.81867218017578,1062367,35244,2092-01-23T15:00:00.000000000,39.05096435546875,121.35802459716795,Asia
Nefteyugansk,Russia,61.092018157697126,72.60800793108787,112632,23.83232879638672,85.79638366699218,345576,21357,2087-04-23T18:00:00.000000000,61.05447769165039,72.69230651855469,Europe
Haikou,China,20.0500023,110.3200256,2046189,23.81125259399414,85.7205093383789,1987208,7940,2082-09-19T15:00:00.000000000,20.21089553833008,110.4914779663086,Asia
Funchal,Portugal,32.6499825,-16.8800397,204767,23.810062408447266,85.71622467041016,1342966,6093,2082-01-31T18:00:00.000000000,32.72407531738281,343.0769348144531,Europe
Río Gallegos,Argentina,-51.6332967,-69.2165868,85700,23.80949783325196,85.71419219970703,5993196,33409,2091-06-08T06:00:00.000000000,-51.56414794921875,290.7441101074219,South America
Albany,Australia,-35.0169466,117.8916048,26445,23.790321350097656,85.64515686035156,5363585,1139,2080-05-22T12:00:00.000000000,-35.04393768310547,117.82442474365234,Oceania
Dunedin,New Zealand,-45.8854231,170.4910157,117700,23.789146423339844,85.64092712402343,5805854,2422,2080-10-29T21:00:00.000000000,-46.01054382324219,170.57142639160156,Oceania
Toyama,Japan,36.6999937,137.2300109,332812,23.77566909790039,85.59240875244141,1157840,31259,2090-09-12T12:00:00.000000000,36.80140686035156,137.1879119873047,Asia
Hokitika,New Zealand,-42.7072393,171.009954,3078,23.74739456176757,85.49062042236328,5680284,35320,2092-02-02T03:00:00.000000000,-42.63620376586914,170.97344970703125,Oceania
Melbourne,United States of America,28.0833104,-80.6083204,265414,23.72219467163086,85.3999008178711,1563849,20701,2087-01-31T18:00:00.000000000,28.1546573638916,279.46832275390625,North America
Sobral Base,Antarctica,-81.1790847,-40.5015315,40,23.715984344482425,85.37754364013672,6566122,7678,2082-08-17T21:00:00.000000000,-81.15991973876953,319.8461608886719,Antarctica
Hermanus,South Africa,-34.4095935,19.2299267,25153,23.71096611022949,85.35947799682617,5337429,4655,2081-08-05T00:00:00.000000000,-34.481544494628906,19.15617179870605,Africa
Pensacola,United States of America,30.4211263,-87.2169351,234384,23.703022003173828,85.33087921142578,1456058,20402,2086-12-25T09:00:00.000000000,30.33391761779785,272.8487548828125,North America
La Scie,Canada,49.9670134,-55.5830003,817,23.70043182373047,85.3215545654297,659706,14628,2085-01-02T15:00:00.000000000,49.94727325439453,304.4947814941406,North America
Alofi,Niue,-19.0659877,-169.9136254,581,23.68947029113769,85.2820930480957,4547496,21372,2087-04-25T15:00:00.000000000,-19.08611488342285,190.1283264160156,Oceania
Erie,United States of America,42.1299207,-80.0849931,178182,23.643688201904297,85.11727752685547,936430,28963,2089-11-29T12:00:00.000000000,42.21440887451172,279.7368469238281,North America
Cartwright,Canada,53.7014066,-57.0121411,505,23.6427001953125,85.113720703125,541470,23383,2088-01-02T00:00:00.000000000,53.743408203125,302.8846130371094,North America
Yilan,Taiwan,24.75,121.75,150000,23.64048957824707,85.10576248168945,1744069,24890,2088-07-08T09:00:00.000000000,24.63971900939941,121.89507293701172,Asia
Rodos,Greece,36.441224,28.2225044,56969,23.63747215270996,85.09489974975587,1172180,36001,2092-04-27T06:00:00.000000000,36.44991302490234,28.19843292236328,Europe
Forteau,Canada,51.4503854,-56.949997,448,23.633792877197266,85.08165435791015,610123,208,2080-01-27T03:00:00.000000000,51.49384689331055,303.09783935546875,North America
Sitia,Greece,35.2004212,26.0985514,8833,23.620241165161133,85.03286819458008,1224799,21071,2087-03-19T00:00:00.000000000,35.25483322143555,26.09195327758789,Europe
Buffalo,United States of America,42.8819241,-78.8819479,1016000,23.60414695739746,84.97492904663086,914670,20161,2086-11-25T06:00:00.000000000,42.77680206298828,280.9171447753906,North America
Wenzhou,China,28.0219268,120.6481469,2350000,23.58889961242676,84.92003860473633,1580018,34215,2091-09-17T00:00:00.000000000,27.803163528442383,120.87738800048828,Asia
Makhachkala,Russia,42.9800238,47.4999841,554981,23.57683563232422,84.8766082763672,902140,790,2080-04-08T21:00:00.000000000,43.0579948425293,47.67856979370117,Europe
Takaoka,Japan,36.6700214,136.9999991,170077,23.576669692993164,84.87601089477539,1157839,22683,2087-10-06T12:00:00.000000000,36.80140686035156,137.06964111328125,Asia
Southampton,United Kingdom,50.9000314,-1.3999768,384417,23.57144355773925,84.85719680786133,632764,32266,2091-01-16T09:00:00.000000000,50.79085922241211,358.7188720703125,Europe
Venice,Italy,45.4386593,12.3349987,270816,23.56733512878418,84.84240646362305,817968,8498,2082-11-28T09:00:00.000000000,45.30755615234375,12.375,Europe
Victoria,United States of America,28.8049976,-97.0033403,64209,23.56649208068848,84.83937149047851,1532017,34183,2091-09-13T00:00:00.000000000,28.78734588623047,263.0057067871094,North America
Korsakov,Russia,46.6424359,142.777476,35091,23.56407356262207,84.83066482543946,773471,32509,2091-02-15T18:00:00.000000000,46.57293319702149,142.81350708007812,Europe
Sunderland,United Kingdom,54.903407084625925,-1.3798815645185654,452934,23.55555534362793,84.79999923706055,504965,30491,2090-06-08T12:00:00.000000000,55.008785247802734,358.7450256347656,Europe
Salem,United States of America,42.5224989,-70.8830917,335509,23.550331115722656,84.78119201660157,928309,5586,2081-11-29T09:00:00.000000000,42.42530822753906,289.295166015625,North America
New Orleans,United States of America,29.96890752188565,-90.08836791917577,785000,23.54805374145508,84.77299346923829,1469714,31018,2090-08-13T09:00:00.000000000,30.052722930908203,269.8949890136719,North America
Metairie,United States of America,29.9838662,-90.1527765,394206,23.54805374145508,84.77299346923829,1469714,31018,2090-08-13T09:00:00.000000000,30.052722930908203,269.8949890136719,North America
Santander,Spain,43.3804645,-3.7999854,208763,23.547447204589844,84.77080993652343,888375,2666,2080-11-29T09:00:00.000000000,43.47978973388672,356.0810852050781,Europe
Southend-on-Sea,United Kingdom,51.5500175,0.7199971,618386,23.54207801818848,84.75148086547851,610477,32265,2091-01-16T06:00:00.000000000,51.42354965209961,0.8137432336807251,Europe
Ballina,Australia,-28.8613533,153.5679801,14242,23.54111671447754,84.74802017211914,5071712,19698,2086-09-28T09:00:00.000000000,-28.85764503479004,153.63844299316406,Oceania
Göteborg,Sweden,57.70914676884978,11.978630208072929,537797,23.53328514099121,84.71982650756836,431541,17567,2086-01-05T00:00:00.000000000,57.609840393066406,11.806451797485352,Europe
Batumi,Georgia,41.6000047,41.6300065,155542,23.52727508544922,84.6981903076172,962164,788,2080-04-08T15:00:00.000000000,41.51142120361328,41.4985580444336,Asia
Jinxi,China,40.7522867,120.8280325,2426000,23.52142333984375,84.6771240234375,1002024,14276,2084-11-19T15:00:00.000000000,40.52724075317383,121.01695251464844,Asia
Hakodate,Japan,41.7949799,140.7399776,302984,23.50562286376953,84.62024230957032,954621,29317,2090-01-12T18:00:00.000000000,41.72232055664063,140.7959442138672,Asia
Pula,Croatia,44.8687199,13.8480847,61599,23.50296974182129,84.61069107055664,835984,32595,2091-02-26T12:00:00.000000000,44.81546401977539,13.910355567932127,Europe
West Palm Beach,United States of America,26.74502,-80.1236213,1250000,23.499483108520508,84.59813919067383,1631781,25271,2088-08-25T00:00:00.000000000,26.818979263305664,279.9667663574219,North America
København,Denmark,55.68051,12.5615399,1085000,23.48529052734375,84.5470458984375,479250,32247,2091-01-14T00:00:00.000000000,55.85237121582031,12.857142448425291,Europe
Hammerfest,Norway,70.6612799,23.6880009,10000,23.47327995300293,84.50380783081054,155157,12028,2084-02-12T15:00:00.000000000,70.68540954589844,23.54838752746582,Europe
Santa Cruz de Tenerife,Spain,28.4699793,-16.2500007,336061,23.4704647064209,84.49367294311524,1543324,23907,2088-03-07T12:00:00.000000000,28.57644844055176,343.5990905761719,Europe
Victoria,Canada,48.4332827,-123.3500009,289625,23.45162010192871,84.42583236694337,713154,233,2080-01-30T06:00:00.000000000,48.33040237426758,236.68341064453125,North America
Algiers,Algeria,36.7650107,3.0486067,3354000,23.426294326782227,84.33465957641602,1150630,23752,2088-02-17T03:00:00.000000000,36.94200134277344,3.0830039978027344,Africa
Wales,United States of America,65.6095986,-168.0875027,99,23.422340393066406,84.32042541503907,247814,34812,2091-11-30T15:00:00.000000000,65.55360412597656,191.7613677978516,North America
Kimchaek,North Korea,40.6723094,129.202749,187270,23.421947479248047,84.31901092529297,999260,20593,2087-01-18T06:00:00.000000000,40.597537994384766,129.33522033691406,Asia
Ravenna,Italy,44.4203752,12.2200187,134631,23.41069602966309,84.27850570678712,851562,19906,2086-10-24T09:00:00.000000000,44.393672943115234,12.404288291931152,Europe
Roxas,Philippines,11.5852735,122.7511014,102688,23.40570831298828,84.26054992675782,2499098,28829,2089-11-12T18:00:00.000000000,11.704745292663574,122.84436798095705,Asia
Naujaat,Canada,66.5294669,-86.282935,1000,23.40016365051269,84.2405891418457,230155,29247,2090-01-04T00:00:00.000000000,66.46748352050781,273.7168273925781,North America
Kaohsiung,Taiwan,22.6333071,120.2666019,2769072,23.39398193359375,84.2183349609375,1850209,13333,2084-07-24T18:00:00.000000000,22.67135238647461,120.21829223632812,Asia
La Paz,Mexico,24.1399593,-110.3199952,189767,23.382062911987305,84.1754264831543,1767888,19868,2086-10-19T15:00:00.000000000,24.217926025390625,249.7021331787109,North America
Iqaluit,Canada,63.7504594,-68.5001917,6124,23.376296997070312,84.15466918945313,284685,3327,2081-02-20T00:00:00.000000000,63.7961311340332,291.48541259765625,North America
Helsingborg,Sweden,56.04129118096808,12.723269742553532,91304,23.35492897033692,84.07774429321289,475341,32247,2091-01-14T00:00:00.000000000,55.99296951293945,12.725409507751465,Europe
Okha,Russia,53.5738991,142.9478531,26560,23.35416412353516,84.07499084472657,546803,37488,2092-10-30T03:00:00.000000000,53.53251266479492,143.0019073486328,Europe
Mahajanga,Madagascar,-15.6700138,46.3450158,154657,23.354022979736328,84.07448272705078,4338204,23303,2087-12-23T00:00:00.000000000,-15.57117748260498,46.39698791503906,Africa
Puerto Princesa,Philippines,9.7542678,118.744384,157144,23.35342025756836,84.0723129272461,2621229,5321,2081-10-27T06:00:00.000000000,9.80667781829834,118.6113510131836,Asia
Kanazawa,Japan,36.5600023,136.6400211,551249,23.35295486450196,84.07063751220703,1163930,31259,2090-09-12T12:00:00.000000000,36.66080856323242,136.59239196777344,Asia
Karlskrona,Sweden,56.1627806414939,15.590754198529854,35212,23.31902885437012,83.94850387573243,471464,19940,2086-10-28T15:00:00.000000000,56.133567810058594,15.55555534362793,Europe
Baltimore,United States of America,39.28151578641361,-76.6145820807727,2255000,23.303014755249023,83.89085311889649,1057855,20712,2087-02-02T03:00:00.000000000,39.19156265258789,283.6176147460937,North America
Changwon,South Korea,35.2191022,128.583562,1081499,23.29673957824707,83.86826248168946,1235105,28315,2089-09-09T12:00:00.000000000,35.04393768310547,128.81678771972656,Asia
Qaqortoq,Greenland,60.7289097,-46.0364117,3224,23.276840209960938,83.79662475585938,355068,35673,2092-03-17T06:00:00.000000000,60.70298385620117,313.82421875,North America
La Paloma,Uruguay,-34.669991,-54.1699858,3230,23.275360107421875,83.79129638671876,5346300,18901,2086-06-20T18:00:00.000000000,-34.62214279174805,305.9090881347656,South America
Sydney,Australia,-33.87137339218338,151.2125477744749,4630000,23.26605987548828,83.75781555175782,5319464,36523,2092-07-01T12:00:00.000000000,-34.05975341796875,151.1999969482422,Oceania
Alicante,Spain,38.3512199,-0.4836407,315863,23.25500869750977,83.71803131103516,1096637,652,2080-03-22T15:00:00.000000000,38.277679443359375,359.6351318359375,Europe
Wollongong,Australia,-34.4153812,150.890004,260914,23.24886512756348,83.69591445922852,5335414,9365,2083-03-16T18:00:00.000000000,-34.41124725341797,151.0188751220703,Oceania
Townsville,Australia,-19.2499503,146.7699971,138954,23.244041442871094,83.67854919433594,4555106,14711,2085-01-13T00:00:00.000000000,-19.226713180541992,146.88427734375,Oceania
Kivalina,United States of America,67.7314922,-164.4859034,374,23.236873626708984,83.65274505615234,207383,34583,2091-11-02T00:00:00.000000000,67.66255950927734,195.37266540527344,North America
Rason,North Korea,42.3376858,130.4027274,60864,23.23502349853516,83.64608459472656,932562,371,2080-02-16T12:00:00.000000000,42.28470993041992,130.45387268066406,Asia
Kangirsuk,Canada,60.0248232,-69.9990971,549,23.22066879272461,83.5944076538086,370285,17590,2086-01-07T21:00:00.000000000,60.07029724121094,289.8837280273437,North America
Melilla,Spain,35.3000016,-2.9500114,141308,23.21784019470215,83.58422470092773,1224546,652,2080-03-22T15:00:00.000000000,35.325130462646484,357.0076599121094,Europe
Durban,South Africa,-29.86066234118211,31.01094366326237,2729000,23.17061233520508,83.41420440673828,5125974,14891,2085-02-04T12:00:00.000000000,-29.98242378234864,31.25874137878418,Africa
Ambarchik,Russia,69.6510057,162.3335949,0,23.17036247253418,83.41330490112306,171600,29026,2089-12-07T09:00:00.000000000,69.70122528076172,162.18429565429688,Europe
Mikhaylova,Russia,75.0949886,86.982432,10,23.1624755859375,83.38491210937501,93914,35511,2092-02-26T00:00:00.000000000,75.04393005371094,87.09677124023438,Europe
Baku,Azerbaijan,40.3972179,49.8602713,2122300,23.156400680541992,83.36304244995118,1012819,495,2080-03-03T00:00:00.000000000,40.24604415893555,49.92977523803711,Asia
Port Shepstone,South Africa,-30.7195345,30.4599906,52793,23.15534400939941,83.35923843383789,5163495,28308,2089-09-08T15:00:00.000000000,-30.75571060180664,30.495868682861328,Africa
Skikda,Algeria,36.880422,6.8999816,225181,23.15361213684082,83.35300369262696,1150663,29579,2090-02-14T12:00:00.000000000,36.94200134277344,6.996047496795654,Africa
Churchill,Canada,58.7659853,-94.1659941,1000,23.146942138671875,83.32899169921875,401795,3715,2081-04-09T12:00:00.000000000,58.8049201965332,265.78125,North America
Oranjemund,Namibia,-28.5494861,16.4299943,8496,23.14492988586425,83.32174758911133,5052841,1802,2080-08-13T09:00:00.000000000,-28.50615119934082,16.484642028808594,Africa
Cartagena,Spain,37.6004297,-0.9800283,201274,23.14323616027832,83.31565017700196,1129456,653,2080-03-22T18:00:00.000000000,37.50439453125,359.0412902832031,Europe
Agapa,Russia,71.450379,89.2499939,10,23.14164924621582,83.30993728637695,144411,116,2080-01-15T15:00:00.000000000,71.38839721679688,89.33085632324219,Europe
Las Palmas,Spain,28.099976,-15.429999,378495,23.139720916748047,83.30299530029298,1571571,6156,2082-02-08T15:00:00.000000000,28.01405906677246,344.458251953125,Europe
Ciudad Madero,Mexico,22.3189077,-97.836106,192736,23.13580894470215,83.28891220092774,1867155,17248,2085-11-26T03:00:00.000000000,22.39015769958496,262.26708984375,North America
Tampico,Mexico,22.30002,-97.8700057,859419,23.13580894470215,83.28891220092774,1867155,17248,2085-11-26T03:00:00.000000000,22.39015769958496,262.26708984375,North America
Almería,Spain,36.8303475,-2.4299915,179405,23.12459945678711,83.2485580444336,1162751,32318,2091-01-22T21:00:00.000000000,36.73110580444336,357.5196838378906,Europe
Saint John,Canada,45.2670418,-66.0766751,87857,23.11649513244629,83.21938247680664,822534,14615,2085-01-01T00:00:00.000000000,45.23725891113281,294.0093688964844,North America
Muroran,Japan,42.3499589,140.9800146,155676,23.11377716064453,83.20959777832032,932643,15028,2085-02-21T15:00:00.000000000,42.28470993041992,141.12738037109375,Asia
Inukjuak,Canada,58.4700086,-78.1359906,1597,23.102441787719727,83.16879043579102,409079,14107,2084-10-29T12:00:00.000000000,58.52372360229492,281.747802734375,North America
Maintirano,Madagascar,-18.0666117,44.0166825,5925,23.08798599243164,83.1167495727539,4484598,23507,2088-01-17T12:00:00.000000000,-18.031633377075195,43.94941711425781,Africa
Waterford,Ireland,52.2582947,-7.1119279,49275,23.08570098876953,83.10852355957032,588529,17696,2086-01-21T03:00:00.000000000,52.19683456420898,352.8597717285156,Europe
Yamburg,Russia,67.92211738288061,74.92531301724216,48488,23.082569122314453,83.09724884033203,203109,18106,2086-03-13T09:00:00.000000000,67.87345886230469,74.764892578125,Europe
Quinhagak,United States of America,59.7492328,-161.9157864,250,23.078800201416016,83.08368072509766,378497,2983,2081-01-08T00:00:00.000000000,59.71880340576172,198.0,North America
Leeuwarden,Netherlands,53.2503788,5.7833573,125778,23.074966430664062,83.06987915039063,552293,35475,2092-02-21T12:00:00.000000000,53.32161712646485,5.646388053894043,Europe
Crescent City,United States of America,41.7564551,-124.2004916,11534,23.07139778137207,83.05703201293946,955350,20346,2086-12-18T09:00:00.000000000,41.72232055664063,235.74530029296875,North America
Kentau,Kazakhstan,43.5165027,68.5198897,57408,23.06105613708496,83.01980209350586,883587,8567,2082-12-07T00:00:00.000000000,43.550086975097656,68.61653900146484,Asia
Milwaukee,United States of America,43.029608354300805,-87.91667321462553,1388000,23.05790328979492,83.00845184326172,903817,37518,2092-11-02T21:00:00.000000000,43.0579948425293,272.2767944335937,North America
Hadiboh,Yemen,12.651875,54.023927,11396,23.045631408691406,82.96427307128907,2436047,10343,2083-07-17T00:00:00.000000000,12.68892765045166,54.04891204833984,Asia
Palmer Station,Antarctica,-64.7624134,-64.0468756,46,23.03608703613281,82.92991333007812,6336649,24232,2088-04-17T03:00:00.000000000,-64.78031158447266,295.7851257324219,Antarctica
Nice,France,43.7169636,7.2630781,927000,23.01481437683105,82.8533317565918,880478,35095,2092-01-05T00:00:00.000000000,43.620384216308594,7.319277286529541,Europe
Chesterfield Inlet,Canada,63.3382902,-90.7000816,374,22.99049949645996,82.76579818725587,293718,5150,2081-10-05T21:00:00.000000000,63.37434005737305,269.2950439453125,North America
Coral Harbour,Canada,64.1537702,-83.1765874,834,22.98254776000977,82.73717193603515,275641,35377,2092-02-09T06:00:00.000000000,64.21792602539062,276.7924499511719,North America
Cork,Ireland,51.89283760162047,-8.465109738576434,188907,22.98245620727539,82.73684234619141,601613,17696,2086-01-21T03:00:00.000000000,51.77504348754883,351.62408447265625,Europe
Rothera Station,Antarctica,-67.5647756,-68.1235405,130,22.963653564453125,82.66915283203126,6391464,22717,2087-10-10T18:00:00.000000000,-67.5922622680664,292.01239013671875,Antarctica
Lower Hutt,New Zealand,-41.2037449,174.9123119,102400,22.957183837890625,82.64586181640625,5628062,11029,2083-10-10T18:00:00.000000000,-41.3005256652832,174.8350067138672,Oceania
Rimouski,Canada,48.4337478,-68.5166812,35584,22.942136764526367,82.59169235229493,708747,28970,2089-11-30T09:00:00.000000000,48.47100067138672,291.47900390625,North America
Onega,Russia,63.9271432,38.0771484,22693,22.937986373901367,82.57675094604492,280618,25365,2088-09-05T18:00:00.000000000,63.93672943115234,37.91999816894531,Europe
Sovetskaya Gavan,Russia,48.9698908,140.2748897,29740,22.92669486999512,82.53610153198242,691189,23481,2088-01-14T06:00:00.000000000,48.96309280395508,140.35714721679688,Europe
Utqiaġvik,United States of America,71.2905697,-156.78858,4336,22.91949844360352,82.51019439697266,146912,17527,2085-12-31T00:00:00.000000000,71.247802734375,203.2472381591797,North America
Sagastyr,Russia,73.3779331,126.5923521,10,22.914974212646484,82.49390716552735,115979,32924,2091-04-08T15:00:00.000000000,73.35676574707031,126.5975112915039,Europe
Falfurrias,United States of America,27.2269027,-98.1448985,5349,22.914840698242188,82.49342651367188,1613585,25465,2088-09-18T06:00:00.000000000,27.170473098754883,261.8819580078125,North America
Quảng Trị,Vietnam,16.7503587,107.2000093,72722,22.898418426513672,82.43430633544922,2187346,37408,2092-10-20T03:00:00.000000000,16.76625633239746,107.20841217041016,Asia
Lisbon,Portugal,38.7246687,-9.1468122,2812000,22.886234283447266,82.39044342041016,1081803,6424,2082-03-14T03:00:00.000000000,38.629173278808594,350.5714416503906,Europe
Cẩm Phả,Vietnam,21.0404328,107.320002,135477,22.884695053100582,82.38490219116211,1947501,4964,2081-09-12T15:00:00.000000000,20.91388320922852,107.32522583007812,Asia
Qasigiannguit,Greenland,68.8192701,-51.1785185,1341,22.87825965881348,82.36173477172852,186446,9425,2083-03-24T06:00:00.000000000,68.8576431274414,308.6557312011719,North America
Boulder,United States of America,40.00813654886576,-105.2445424213015,122274,22.853870391845703,82.27393341064453,1023003,31844,2090-11-24T15:00:00.000000000,40.03514862060547,254.6433563232422,North America
Kholmsk,Russia,47.0473208,142.0623775,32911,22.849140167236328,82.25690460205078,758612,11731,2084-01-06T12:00:00.000000000,46.994728088378906,142.0129852294922,Europe
Panama City,United States of America,30.15861,-85.6552733,100072,22.806365966796875,82.10291748046875,1466328,20624,2087-01-22T03:00:00.000000000,30.123022079467773,274.2055969238281,North America
Balkanabat,Turkmenistan,39.5123802,54.3649397,110827,22.802433013916016,82.08875885009766,1047300,35625,2092-03-11T06:00:00.000000000,39.40245819091797,54.19889450073242,Asia
North Shore,New Zealand,-36.7912685,174.7758388,205605,22.797313690185547,82.07032928466798,5435339,36423,2092-06-19T00:00:00.000000000,-36.66080856323242,174.92791748046875,Oceania
Amsterdam,Netherlands,52.3519145,4.9146943,1031000,22.79093742370605,82.0473747253418,586432,32267,2091-01-16T12:00:00.000000000,52.19683456420898,4.649446487426758,Europe
Burnie,Australia,-41.0666032,145.9166642,19972,22.78799057006836,82.0367660522461,5616653,31281,2090-09-15T06:00:00.000000000,-41.01933288574219,145.9771728515625,Oceania
Sokcho,South Korea,38.208713,128.5911584,85430,22.78411293029785,82.02280654907227,1094737,29308,2090-01-11T15:00:00.000000000,38.277679443359375,128.55404663085938,Asia
Ivugivik,Canada,62.4166411,-77.8999844,156,22.78310203552246,82.01916732788087,315628,34580,2091-11-01T15:00:00.000000000,62.39015579223633,282.0151062011719,North America
Rize,Turkey,41.0208411,40.5218571,279450,22.782413482666016,82.01668853759766,978875,392,2080-02-19T03:00:00.000000000,41.089630126953125,40.5,Asia
Koszalin,Poland,54.2,16.1833333,107450,22.757343292236328,81.92643585205079,523315,17566,2086-01-04T21:00:00.000000000,54.3057975769043,15.99609375,Europe
Tuapse,Russia,44.1147608,39.064375,99145,22.75714874267578,81.92573547363281,862229,33,2080-01-05T06:00:00.000000000,44.11247634887695,39.04109573364258,Europe
Kimmirut,Canada,62.8500255,-69.8833161,385,22.75611114501953,81.92200012207032,306201,3323,2081-02-19T12:00:00.000000000,62.81194686889648,290.2557678222656,North America
Split,Croatia,43.5204043,16.4699918,214741,22.75240135192871,81.90864486694336,888526,23866,2088-03-02T09:00:00.000000000,43.40948867797852,16.461769104003906,Europe
Sisimiut,Greenland,66.9500078,-53.6666057,5227,22.746376037597656,81.88695373535157,222205,28576,2089-10-12T03:00:00.000000000,66.88927459716797,306.2162170410156,North America
Rio Grande,Brazil,-32.0494791,-52.1200076,187838,22.74039459228516,81.86542053222657,5223100,33268,2091-05-21T15:00:00.000000000,-31.95079040527344,307.9518127441406,South America
Baie-Comeau,Canada,49.222666,-68.157995,10435,22.73797035217285,81.85669326782227,685137,20983,2087-03-08T00:00:00.000000000,49.17398834228516,291.8461608886719,North America
Béjaïa,Algeria,36.7603776,5.0700158,384937,22.73717498779297,81.8538299560547,1153684,17729,2086-01-25T06:00:00.000000000,36.8717041015625,5.210526466369629,Africa
Genoa,Italy,44.4099882,8.9300386,647497,22.73068046569824,81.83044967651368,854150,131,2080-01-17T12:00:00.000000000,44.32337188720703,9.082569122314451,Europe
Huatabampo,Mexico,26.8304153,-109.6300373,30426,22.72587013244629,81.81313247680664,1631484,8276,2082-10-31T15:00:00.000000000,26.818979263305664,250.36544799804688,North America
Maxixe,Mozambique,-23.8660227,35.3885509,119868,22.71730232238769,81.7822883605957,4812153,26617,2089-02-09T06:00:00.000000000,-23.866432189941406,35.52381134033203,Africa
Pohang,South Korea,36.020862,129.3715242,435266,22.715166091918945,81.7745979309082,1197678,28316,2089-09-09T15:00:00.000000000,35.88751983642578,129.53488159179688,Asia
Nizhneyansk,Russia,71.4333258,136.0666194,400,22.71322631835937,81.76761474609376,144551,32926,2091-04-08T21:00:00.000000000,71.38839721679688,136.17100524902344,Europe
Point Hope,United States of America,68.3477261,-166.8080201,461,22.71130752563477,81.76070709228516,194694,35271,2092-01-27T00:00:00.000000000,68.36554718017578,193.26922607421875,North America
Vero Beach,United States of America,27.642252,-80.3911243,86039,22.710357666015625,81.75728759765626,1592276,21038,2087-03-14T21:00:00.000000000,27.592266082763672,279.68609619140625,North America
Charlottetown,Canada,46.2492816,-63.1313251,42402,22.704853057861328,81.73747100830079,787032,12094,2084-02-20T21:00:00.000000000,46.221439361572266,296.84210205078125,North America
Newhalen,United States of America,59.7203457,-154.8971967,160,22.68558692932129,81.66811294555664,380273,32638,2091-03-03T21:00:00.000000000,59.64850616455078,204.97706604003903,North America
Uglegorsk,Russia,49.0833464,142.0333353,12669,22.68222427368164,81.65600738525391,688850,13855,2084-09-28T00:00:00.000000000,49.033390045166016,141.9761505126953,Europe
Enurmino,Russia,66.9500078,-171.8166032,297,22.66807556152344,81.60507202148438,220438,35273,2092-01-27T06:00:00.000000000,66.9595718383789,188.1325225830078,Europe
Gwangju,South Korea,35.1729115,126.9084883,1440000,22.6677303314209,81.60382919311523,1238233,19545,2086-09-09T06:00:00.000000000,34.973636627197266,126.82337951660156,Asia
Belgrano II Base,Antarctica,-77.8663208,-34.6166832,100,22.66629409790039,81.59865875244141,6537348,35709,2092-03-21T18:00:00.000000000,-77.85588073730469,325.4237365722656,Antarctica
Pevek,Russia,69.7008218,170.3133146,4837,22.657339096069336,81.56642074584961,170456,31534,2090-10-16T21:00:00.000000000,69.77152252197266,170.13699340820312,Europe
Whakatane,New Zealand,-37.9573865,176.9827578,18700,22.646398544311523,81.52703475952148,5489645,25010,2088-07-23T09:00:00.000000000,-37.92618560791016,176.9798583984375,Oceania
Ninde,China,26.6803727,119.5300577,314077,22.6414852142334,81.50934677124023,1633786,34216,2091-09-17T03:00:00.000000000,26.748682022094727,119.66814422607422,Asia
Århus,Denmark,56.157204,10.210684,237551,22.63591957092285,81.48931045532227,471436,19939,2086-10-28T12:00:00.000000000,56.133567810058594,10.370369911193848,Europe
Wrangell,United States of America,56.4712675,-132.3715949,2070,22.61075782775879,81.39872817993164,462936,624,2080-03-19T03:00:00.000000000,56.48506164550781,227.52598571777344,North America
Barletta,Italy,41.319996,16.270004,107830,22.60505485534668,81.37819747924804,964745,23866,2088-03-02T09:00:00.000000000,41.44112396240234,16.187049865722656,Europe
Puerto San Julián,Argentina,-49.3000024,-67.7166525,2347,22.591339111328125,81.32882080078126,5920670,15509,2085-04-22T18:00:00.000000000,-49.3145866394043,292.3842163085937,South America
Macau,Macau S.A.R,22.18913523490745,113.54437522184952,568700,22.583675384521484,81.30123138427734,1877168,37198,2092-09-23T21:00:00.000000000,22.179262161254883,113.68421173095705,Asia
Roebourne,Australia,-20.7829317,117.1333048,19260,22.556625366210938,81.20385131835938,4642787,230,2080-01-29T21:00:00.000000000,-20.773286819458008,117.11830139160156,Oceania
Brindisi,Italy,40.6403475,17.9300061,104437,22.55614471435547,81.20212097167969,998386,9273,2083-03-05T06:00:00.000000000,40.597537994384766,18.076379776000977,Europe
