city_name,country,city_lat,city_lon,population,max_precip_raw,max_precip,cell_idx,time_idx,timestamp,lat,lon,continent
Porbandar,India,21.6699809,69.6700004,234684,0.2103637307882309,210.3637307882309,1900016,33797,1961-07-26T18:00:00.000000000,21.757469177246094,69.78461456298828,Asia
Mansa Konko,The Gambia,13.454894163505193,-15.543323511272511,18672,0.2093546986579895,209.3546986579895,2395631,7663,1952-08-16T00:00:00.000000000,13.391915321350098,344.4515686035156,Africa
Mumbai,India,19.06840847529168,72.8758393972653,18978000,0.2053703516721725,205.3703516721725,2038959,7189,1952-06-17T18:00:00.000000000,19.29701232910156,72.9802017211914,Asia
Kalyan,India,19.250232,73.1601749,1576614,0.2053703516721725,205.3703516721725,2038959,7189,1952-06-17T18:00:00.000000000,19.29701232910156,72.9802017211914,Asia
Bhiwandi,India,19.351965,73.12805,795000,0.2033820450305938,203.38204503059387,2038960,7189,1952-06-17T18:00:00.000000000,19.29701232910156,73.06930541992188,Asia
Rajkot,India,22.3119652,70.7980631,1260000,0.1857434213161468,185.74342131614685,1872831,56830,1969-06-13T21:00:00.000000000,22.24955940246582,70.56818389892578,Asia
Port Douglas,Australia,-16.4845881,145.4587218,3000,0.1829325258731842,182.9325258731842,4398515,23757,1958-02-17T18:00:00.000000000,-16.555360794067383,145.42420959472656,Oceania
Daman,India,20.4170083,72.850013,39737,0.1724471598863601,172.44715988636017,1974848,4496,1951-07-17T03:00:00.000000000,20.42179298400879,72.79678344726562,Asia
Bade,Taiwan,24.9575,121.2988889,172065,0.1703990697860717,170.39906978607178,1732876,11076,1953-10-16T15:00:00.000000000,24.85061454772949,121.41783142089844,Asia
Zhongli,Taiwan,24.9650252,121.2167765,1632616,0.1703990697860717,170.39906978607178,1732876,11076,1953-10-16T15:00:00.000000000,24.85061454772949,121.41783142089844,Asia
Taipei,Taiwan,25.0358333,121.5683333,6900273,0.1703990697860717,170.39906978607178,1732876,11076,1953-10-16T15:00:00.000000000,24.85061454772949,121.41783142089844,Asia
New Taipei,Taiwan,25.0127778,121.465,3893740,0.1703990697860717,170.39906978607178,1732876,11076,1953-10-16T15:00:00.000000000,24.85061454772949,121.41783142089844,Asia
Karachi,Pakistan,24.8719381,66.9880631,12130000,0.1696272194385528,169.62721943855286,1754720,48490,1966-08-06T09:00:00.000000000,24.428821563720703,66.85165405273438,Asia
Sittwe,Myanmar,20.1399968,92.8800048,179032,0.1692251414060592,169.2251414060593,1994994,4065,1951-05-24T06:00:00.000000000,20.07029914855957,92.79279327392578,Asia
Surat,India,21.2019296,72.8380936,3842000,0.165929302573204,165.92930257320404,1927440,24753,1958-06-22T06:00:00.000000000,21.26537704467773,72.95315551757812,Asia
Roxas,Philippines,11.5852735,122.7511014,102688,0.1654526889324188,165.45268893241882,2508047,2021,1950-09-10T18:00:00.000000000,11.564146995544434,122.70536041259766,Asia
Chattogram,Bangladesh,22.3319381,91.7980215,4529000,0.1649010330438614,164.9010330438614,1880811,30560,1960-06-17T03:00:00.000000000,22.108963012695312,91.94845581054688,Asia
Yilan,Taiwan,24.75,121.75,150000,0.1618950814008712,161.89508140087128,1744067,11078,1953-10-16T21:00:00.000000000,24.63971900939941,121.70235443115234,Asia
Dili,East Timor,-8.5593884,125.5794559,234331,0.1568285077810287,156.82850778102875,3893877,50685,1967-05-07T18:00:00.000000000,-8.541300773620605,125.44281768798828,Asia
Khulna,Bangladesh,22.8419329,89.5580549,1553000,0.1559924781322479,155.99247813224792,1838356,45138,1965-06-13T09:00:00.000000000,22.88224983215332,89.34306335449219,Asia
Laoag,Philippines,18.1988491,120.5936104,207048,0.1548980772495269,154.89807724952698,2108741,25249,1958-08-23T06:00:00.000000000,18.10193252563477,120.67185974121094,Asia
Ahmedabad,India,23.0319988,72.5780578,5375000,0.1545541286468505,154.5541286468506,1842012,10250,1953-07-05T09:00:00.000000000,22.81195068359375,72.375,Asia
Baguio,Philippines,16.4299907,120.5699426,447824,0.154141753911972,154.14175391197205,2204268,18703,1956-05-27T00:00:00.000000000,16.485061645507812,120.68571472167967,Asia
Pingzhen,Taiwan,24.9438889,121.2161111,201632,0.1538920104503631,153.89201045036316,1732875,11076,1953-10-16T15:00:00.000000000,24.85061454772949,121.32115936279295,Asia
Bafoulabé,Mali,13.8003837,-10.820022,26823,0.1523443162441253,152.34431624412537,2373849,37107,1962-09-13T12:00:00.000000000,13.743409156799316,349.1735534667969,Africa
Sunshine Coast,Australia,-26.6799878,153.0500272,71043,0.1522774398326873,152.27743983268738,4965017,44152,1965-02-10T03:00:00.000000000,-26.748682022094727,153.01991271972656,Oceania
Hiroshima,Japan,34.389781,132.4409671,2045000,0.1501891613006591,150.18916130065918,1273144,28298,1959-09-08T09:00:00.000000000,34.20035171508789,132.18045043945312,Asia
Asunción,Paraguay,-25.29067083610963,-57.62583375528301,1870000,0.1467877179384231,146.78771793842316,4882325,14577,1954-12-28T06:00:00.000000000,-25.13180923461914,302.6213684082031,South America
Quezon City,Philippines,14.6504352,121.0299662,2761720,0.1451427489519119,145.14274895191193,2327735,1063,1950-05-14T00:00:00.000000000,14.446396827697754,121.02873229980467,Asia
Pasay City,Philippines,14.5504413,120.9999939,403064,0.1451427489519119,145.14274895191193,2327735,1063,1950-05-14T00:00:00.000000000,14.446396827697754,121.02873229980467,Asia
Manila,Philippines,14.6061048,120.9802713,11100000,0.1451427489519119,145.14274895191193,2327735,1063,1950-05-14T00:00:00.000000000,14.446396827697754,121.02873229980467,Asia
Tainan,Taiwan,23.0000031,120.2000427,1876312,0.1435115784406662,143.5115784406662,1834854,13112,1954-06-28T03:00:00.000000000,22.95254707336425,120.43841552734376,Asia
Vadodara,India,22.3119652,73.1780728,1756000,0.1432278305292129,143.22783052921295,1872859,7255,1952-06-26T00:00:00.000000000,22.24955940246582,73.1714859008789,Asia
Hà Tĩnh,Vietnam,18.3337763,105.900037,165396,0.1426116973161697,142.61169731616974,2096269,2237,1950-10-07T18:00:00.000000000,18.31282997131348,105.908203125,Asia
Rio de Janeiro,Brazil,-22.907308056882364,-43.21211746683439,11748000,0.140691339969635,140.691339969635,4780935,49824,1967-01-20T03:00:00.000000000,-23.23374366760254,316.5094299316406,South America
Kolkata,India,22.56957888379577,88.36912550443886,14787000,0.1402737498283386,140.27374982833862,1861431,21804,1957-06-18T15:00:00.000000000,22.46045684814453,88.69429779052734,Asia
Brisbane,Australia,-27.453085,153.0331469,1860000,0.139745220541954,139.74522054195404,4993821,44265,1965-02-24T06:00:00.000000000,-27.311071395874023,153.18080139160156,Oceania
Les Cayes,Haiti,18.2003736,-73.7499793,175457,0.1383942812681198,138.3942812681198,2098321,3397,1951-03-01T18:00:00.000000000,18.31282997131348,286.259765625,North America
Ingham,Australia,-18.6495735,146.1666231,6127,0.1381268799304962,138.12687993049622,4522615,415,1950-02-22T00:00:00.000000000,-18.66432380676269,146.17271423339844,Oceania
Mawlamyine,Myanmar,16.5004256,97.6700484,438861,0.1372970789670944,137.29707896709442,2195609,4056,1951-05-23T03:00:00.000000000,16.62565803527832,97.64312744140624,Asia
Tokushima,Japan,34.0673895,134.5525,443760,0.1372359246015548,137.23592460155487,1279555,5067,1951-09-26T12:00:00.000000000,34.05975341796875,134.4375,Asia
Tsu,Japan,34.7170657,136.5166695,500000,0.1367244720458984,136.72447204589844,1250941,4999,1951-09-18T00:00:00.000000000,34.69244384765625,136.64981079101562,Asia
Brahmapur,India,19.3199951,84.7999812,324726,0.1362684071063995,136.26840710639954,2035056,37350,1962-10-13T21:00:00.000000000,19.367311477661133,84.91575622558594,Asia
Taoyuan,Taiwan,24.9888889,121.3111111,500000,0.1361374109983444,136.13741099834442,1729155,11076,1953-10-16T15:00:00.000000000,24.920913696289062,121.4516143798828,Asia
Cilacap,Indonesia,-7.7188196,109.0154024,1174964,0.1349519491195678,134.95194911956787,3832843,5704,1951-12-15T03:00:00.000000000,-7.627416610717773,109.2091827392578,Asia
Guasave,Mexico,25.5704922,-108.4699789,96860,0.1348907351493835,134.89073514938354,1693492,52008,1967-10-20T03:00:00.000000000,25.6239013671875,251.6086883544922,North America
Apalachicola,United States of America,29.7256132,-84.992523,2284,0.1348886042833328,134.88860428333282,1483511,8183,1952-10-20T00:00:00.000000000,29.771528244018555,275.0174255371094,North America
Ayoun el Atrous,Mauritania,16.6665912,-9.6166588,1423,0.1347154527902603,134.71545279026031,2198552,36913,1962-08-20T06:00:00.000000000,16.62565803527832,350.3816833496094,Africa
Santiago Ixcuintla,Mexico,21.8199976,-105.2200481,18365,0.1343973577022552,134.39735770225525,1898121,31043,1960-08-16T12:00:00.000000000,21.827768325805664,254.7535858154297,North America
Santo Domingo,Dominican Republic,18.470745058048376,-69.92974231579055,2154000,0.1341487020254135,134.1487020254135,2098367,7857,1952-09-09T06:00:00.000000000,18.31282997131348,290.302734375,North America
Bhusawal,India,21.0199947,75.8300378,183001,0.1339337527751922,133.93375277519226,1943210,39339,1963-06-19T12:00:00.000000000,20.98418235778809,75.76065063476562,Asia
Malabo,Equatorial Guinea,3.7500153,8.7832775,155963,0.1334997117519378,133.49971175193787,3023420,2082,1950-09-18T09:00:00.000000000,3.8312828540802,8.780488014221191,Africa
Chiayi,Taiwan,23.4754521,120.4350671,500000,0.1333533078432083,133.3533078432083,1804332,4487,1951-07-16T00:00:00.000000000,23.514938354492188,120.50526428222656,Asia
Iligan,Philippines,8.1712441,124.2153531,464599,0.1332688480615615,133.26884806156158,2737036,23242,1957-12-15T09:00:00.000000000,8.049208641052246,124.30769348144533,Asia
Jhang,Pakistan,31.2803762,72.3249804,341210,0.1328020840883255,132.8020840883255,1413517,56963,1969-06-30T12:00:00.000000000,31.17750358581543,72.449462890625,Asia
Mudon,Myanmar,16.2618355,97.7214664,152300,0.1325141340494156,132.5141340494156,2225046,48680,1966-08-30T03:00:00.000000000,16.133567810058594,97.76303100585938,Asia
Vigan,Philippines,17.574727,120.3869047,48545,0.1319644153118133,131.96441531181335,2141725,57706,1969-10-01T09:00:00.000000000,17.53954315185547,120.43478393554688,Asia
Jayapura,Indonesia,-2.5329862,140.69998,169341,0.1316612064838409,131.66120648384094,3474173,16035,1955-06-28T12:00:00.000000000,-2.425307512283325,140.61599731445312,Asia
Itajaí,Brazil,-26.8996126,-48.6800108,327126,0.1316489428281784,131.6489428281784,4973827,35023,1961-12-27T00:00:00.000000000,-26.889278411865234,311.2084350585937,South America
Bhuj,India,23.23382675654731,69.67359109934806,289429,0.1303446143865585,130.34461438655853,1815209,48609,1966-08-21T06:00:00.000000000,23.30404090881348,69.60125732421875,Asia
Chaozhou,China,23.6800391,116.630028,424787,0.1297248005867004,129.72480058670044,1789127,18641,1956-05-19T06:00:00.000000000,23.79613304138184,116.73361206054688,Asia
Yeosu,South Korea,34.7367802,127.7458353,341994,0.129314124584198,129.314124584198,1247701,16554,1955-09-01T09:00:00.000000000,34.76274108886719,127.7088623046875,Asia
Fortaleza,Brazil,-3.748072,-38.5819272,3602319,0.1292865872383117,129.28658723831177,3575855,6297,1952-02-27T06:00:00.000000000,-3.8312828540802,321.5853576660156,South America
Kaohsiung,Taiwan,22.6333071,120.2666019,2769072,0.1291057169437408,129.10571694374084,1857911,15911,1955-06-13T00:00:00.000000000,22.5307559967041,120.15560150146484,Asia
Qingdao,China,36.0919251,120.3280631,2866000,0.1281237602233886,128.12376022338867,1182173,39871,1963-08-25T00:00:00.000000000,36.239013671875,120.42913055419922,Asia
Samut Sakhon,Thailand,13.536,100.2740046,63498,0.1279018223285675,127.9018223285675,2383920,56504,1969-05-04T03:00:00.000000000,13.532512664794922,100.21977996826172,Asia
Mazatlán,Mexico,23.2211007,-106.4200007,368204,0.1278472989797592,127.84729897975922,1824792,28029,1959-08-05T18:00:00.000000000,23.16344451904297,253.6963348388672,North America
Villa Unión,Mexico,23.1999909,-106.2300381,15443,0.1278472989797592,127.84729897975922,1824792,28029,1959-08-05T18:00:00.000000000,23.16344451904297,253.6963348388672,North America
Hue,Vietnam,16.4699882,107.5800378,950000,0.1277484893798828,127.7484893798828,2199919,57455,1969-08-31T00:00:00.000000000,16.555360794067383,107.6739730834961,Asia
Conakry,Guinea,9.5334687,-13.6821809,1494000,0.1276450753211975,127.64507532119752,2628711,22599,1957-09-26T00:00:00.000000000,9.736379623413086,346.4136047363281,Africa
Pingtung,Taiwan,22.6817021,120.4816792,503530,0.1273778080940246,127.37780809402466,1842525,24480,1958-05-19T03:00:00.000000000,22.81195068359375,120.46875,Asia
Da Nang,Vietnam,16.0600391,108.2499711,1000000,0.1272940188646316,127.29401886463164,2242077,13582,1954-08-25T21:00:00.000000000,15.852372169494627,108.1869659423828,Asia
Gabú,Guinea Bissau,12.2799961,-14.2340035,14430,0.1271322965621948,127.13229656219482,2461764,28123,1959-08-17T12:00:00.000000000,12.33743381500244,345.71685791015625,Africa
São Francisco do Sul,Brazil,-26.2396012,-48.5999899,36224,0.1271251738071441,127.12517380714417,4937564,44088,1965-02-02T03:00:00.000000000,-26.1862907409668,311.4473571777344,South America
Maceió,Brazil,-9.6180496,-35.7319203,1186000,0.1268599480390548,126.85994803905488,3956566,27465,1959-05-27T06:00:00.000000000,-9.45518398284912,324.4695739746094,South America
Bhopal,India,23.2519337,77.4080472,1727000,0.1268440783023834,126.84407830238342,1819106,33621,1961-07-04T18:00:00.000000000,23.23374366760254,77.54717254638672,Asia
Douliou,Taiwan,23.7075,120.5438889,106653,0.1266572177410125,126.65721774101256,1800535,4487,1951-07-16T00:00:00.000000000,23.58523750305176,120.53740692138672,Asia
Putian,China,25.4303457,119.0200114,376558,0.1265828311443328,126.58283114433289,1695818,7668,1952-08-16T15:00:00.000000000,25.55360221862793,119.0228042602539,Asia
Lae,Papua New Guinea,-6.7329883,146.9900354,131052,0.1264526844024658,126.45268440246582,3776597,46445,1965-11-23T18:00:00.000000000,-6.7838311195373535,147.0454559326172,Oceania
Yangmei,Taiwan,24.9166667,121.15,175000,0.1255699098110199,125.5699098110199,1732874,11076,1953-10-16T15:00:00.000000000,24.85061454772949,121.2244873046875,Asia
San Ramón de la Nueva Orán,Argentina,-23.1399971,-64.3200122,74059,0.1254733353853225,125.47333538532256,4773077,49360,1966-11-23T03:00:00.000000000,-23.0931453704834,295.7008361816406,South America
Keelung,Taiwan,25.1332579,121.7332824,500000,0.1254686713218689,125.4686713218689,1718019,49117,1966-10-23T18:00:00.000000000,25.13180923461914,121.84465789794922,Asia
Benguela,Angola,-12.5782645,13.407233,151226,0.125455155968666,125.45515596866608,4146774,46329,1965-11-09T06:00:00.000000000,-12.478031158447266,13.49593448638916,Africa
Lobito,Angola,-12.3700085,13.54123,207932,0.125455155968666,125.45515596866608,4146774,46329,1965-11-09T06:00:00.000000000,-12.478031158447266,13.49593448638916,Africa
Jember,Indonesia,-8.1726937,113.6873136,298585,0.1254039257764816,125.40392577648164,3875081,49629,1966-12-26T18:00:00.000000000,-8.26010513305664,113.59896850585938,Asia
Mymensingh,Bangladesh,24.750413,90.3800024,330126,0.1251071840524673,125.10718405246736,1732555,1217,1950-06-02T06:00:00.000000000,24.85061454772949,90.38668060302734,Asia
Nonthaburi,Thailand,13.8336892,100.4833134,258550,0.1244470402598381,124.4470402598381,2357791,20031,1956-11-09T00:00:00.000000000,13.954305648803713,100.35911560058594,Asia
Bangkok,Thailand,13.7519451,100.5146988,6704000,0.1244470402598381,124.4470402598381,2357791,20031,1956-11-09T00:00:00.000000000,13.954305648803713,100.35911560058594,Asia
Salvador,Brazil,-12.968026,-38.4819333,3484000,0.1242860704660415,124.28607046604156,4185844,27035,1959-04-03T12:00:00.000000000,-13.04042148590088,321.3466796875,South America
Maxixe,Mozambique,-23.8660227,35.3885509,119868,0.1242819726467132,124.28197264671326,4815932,18187,1956-03-23T12:00:00.000000000,-23.936731338500977,35.466102600097656,Africa
Inhambane,Mozambique,-23.8580397,35.3398175,115776,0.1242819726467132,124.28197264671326,4815932,18187,1956-03-23T12:00:00.000000000,-23.936731338500977,35.466102600097656,Africa
George Town,Malaysia,5.4136132,100.3293679,2500000,0.1242016106843948,124.20161068439484,2902942,52382,1967-12-05T21:00:00.000000000,5.588752269744873,100.23236846923828,Asia
Hoa Binh,Vietnam,20.8137024,105.3383142,105260,0.1239124983549118,123.9124983549118,1955381,9917,1953-05-24T18:00:00.000000000,20.773286819458008,105.28816986083984,Asia
Luganville,Vanuatu,-15.5125557,167.1766068,13397,0.1234490126371383,123.44901263713837,4335377,22399,1957-09-01T00:00:00.000000000,-15.50087833404541,167.22744750976562,Oceania
Bensonville,Liberia,6.433299,-10.6000015,4089,0.1230716556310653,123.07165563106535,2853480,22442,1957-09-06T09:00:00.000000000,6.362038612365723,349.4472351074219,Africa
Buenaventura,Colombia,3.8724024,-77.0504533,252805,0.1228984668850898,122.89846688508987,3032089,7026,1952-05-28T09:00:00.000000000,3.760984182357788,282.8675842285156,South America
Manado,Indonesia,1.4800246,124.8499914,451893,0.1227781474590301,122.77814745903017,3194578,14958,1955-02-13T21:00:00.000000000,1.4411247968673706,124.88924407958984,Asia
Dhaka,Bangladesh,23.7250056,90.4066336,12797394,0.1227707639336586,122.7707639336586,1815433,33441,1961-06-12T06:00:00.000000000,23.30404090881348,90.75550842285156,Asia
Port-Gentil,Gabon,-0.720022,8.7800219,116836,0.1226805821061134,122.68058210611343,3356239,10857,1953-09-19T06:00:00.000000000,-0.80843585729599,8.695993423461914,Africa
Nha Trang,Vietnam,12.2500391,109.1700183,411556,0.1226706728339195,122.67067283391953,2467726,46256,1965-10-31T03:00:00.000000000,12.196836471557615,109.03690338134766,Asia
Freetown,Sierra Leone,8.4719573,-13.2361616,827000,0.1225326210260391,122.53262102603912,2707252,13353,1954-07-28T06:00:00.000000000,8.541300773620605,346.6896057128906,Africa
Zhuhai,China,22.2788903,113.5658319,1023000,0.1224497333168983,122.44973331689836,1869422,39128,1963-05-24T03:00:00.000000000,22.31985855102539,113.36090850830078,Asia
Cadiz,Philippines,10.9587484,123.3085868,283157,0.1224445179104805,122.4445179104805,2553047,46426,1965-11-21T09:00:00.000000000,10.861159324645996,123.21238708496094,Asia
St.-Denis,France,-20.8788948,55.4480778,190047,0.1221599578857421,122.1599578857422,4642108,56397,1969-04-20T18:00:00.000000000,-20.773286819458008,55.32861328125,Europe
Sylhet,Bangladesh,24.9035561,91.8736063,237000,0.122144766151905,122.14476615190506,1728848,50981,1967-06-13T18:00:00.000000000,24.920913696289062,91.74193572998048,Asia
Karimnagar,India,18.4604352,79.1099926,288251,0.1220777779817581,122.07777798175812,2079616,8246,1952-10-27T21:00:00.000000000,18.594024658203125,79.05882263183594,Asia
Lahad Datu,Malaysia,5.0463961,118.3359704,105622,0.1220721825957298,122.07218259572984,2937019,9324,1953-03-11T15:00:00.000000000,5.096660614013672,118.44059753417967,Asia
Caloundra,Australia,-26.8000321,153.1333296,38706,0.1220711395144462,122.07113951444626,4965018,44152,1965-02-10T03:00:00.000000000,-26.748682022094727,153.11947631835938,Oceania
Sheikhu Pura,Pakistan,31.7199876,73.9899951,361303,0.1219427511096,121.94275110960008,1383427,56959,1969-06-30T00:00:00.000000000,31.810192108154297,73.88220977783203,Asia
Rangpur,Bangladesh,25.7500161,89.2800179,285564,0.1217905506491661,121.79055064916612,1688157,1211,1950-06-01T12:00:00.000000000,25.69420051574707,89.41240692138672,Asia
Zhanjiang,China,21.2019296,110.3780761,1590000,0.121651291847229,121.651291847229,1935710,36797,1962-08-05T18:00:00.000000000,21.124780654907227,110.30487823486328,Asia
Beihai,China,21.4804059,109.1000484,728978,0.121464155614376,121.46415561437608,1912156,12729,1954-05-11T06:00:00.000000000,21.546571731567383,108.9570541381836,Asia
Monrovia,Liberia,6.3145816,-10.7996604,1041000,0.1212284639477729,121.22846394777298,2843930,2002,1950-09-08T09:00:00.000000000,6.502635955810547,349.2785339355469,Africa
Jeju,South Korea,33.5101367,126.5219307,408364,0.121175467967987,121.17546796798706,1308441,13721,1954-09-12T06:00:00.000000000,33.42706298828125,126.48949432373048,Asia
Bhavnagar,India,21.7784239,72.1299536,554978,0.1208841651678085,120.88416516780852,1903943,4504,1951-07-18T03:00:00.000000000,21.687170028686523,72.20286560058594,Asia
São Tomé,Sao Tome and Principe,0.3374664069826239,6.729649806269851,88219,0.1208552867174148,120.85528671741486,3269179,37145,1962-09-18T06:00:00.000000000,0.3866432309150696,6.684910297393799,Africa
Innisfail,Australia,-17.5313472,146.0386722,10143,0.1207042708992958,120.7042708992958,4456880,34704,1961-11-17T03:00:00.000000000,-17.53954315185547,146.0869598388672,Oceania
Villa Hayes,Paraguay,-25.0900073,-57.5299874,15643,0.1205581426620483,120.55814266204834,4882324,14576,1954-12-28T03:00:00.000000000,-25.13180923461914,302.5242614746094,South America
São Paulo,Brazil,-23.5567337,-46.6269658,18845000,0.1203171014785766,120.31710147857666,4818847,3583,1951-03-25T00:00:00.000000000,-23.936731338500977,313.3792419433594,South America
Cairns,Australia,-16.8878399,145.7633309,154225,0.1198891177773475,119.88911777734756,4423626,20697,1957-01-31T06:00:00.000000000,-16.97715187072754,145.829345703125,Oceania
Los Mochis,Mexico,25.7899878,-108.9999982,249047,0.1198606044054031,119.86060440540314,1678796,22551,1957-09-20T00:00:00.000000000,25.90509605407715,251.1353759765625,North America
Vinh,Vietnam,18.6999813,105.6799987,593645,0.1198021173477172,119.80211734771729,2079917,19431,1956-08-26T00:00:00.000000000,18.594024658203125,105.61764526367188,Asia
Navsari,India,20.8503927,72.9200345,163000,0.1197623312473297,119.76233124732973,1955026,39324,1963-06-17T15:00:00.000000000,20.773286819458008,72.9828109741211,Asia
Suva,Fiji,-18.1330159,178.4417073,175399,0.119732528924942,119.73252892494202,4498452,42916,1964-09-08T15:00:00.000000000,-18.242530822753903,178.4195098876953,Oceania
Parbhani,India,19.2703858,76.7600069,378326,0.119558610022068,119.55861002206802,2047087,1757,1950-08-08T18:00:00.000000000,19.156414031982425,76.74900817871094,Asia
Limbe,Cameroon,4.0303858,9.1900227,212474,0.1195379197597503,119.53791975975037,3008689,16288,1955-07-30T03:00:00.000000000,4.042179107666016,9.16870403289795,Africa
Ouagadougou,Burkina Faso,12.3722618,-1.5266696,1149000,0.1195321828126907,119.53218281269072,2457487,4534,1951-07-21T21:00:00.000000000,12.407732963562012,358.619140625,Africa
Poso,Indonesia,-1.3895935,120.7600085,47110,0.1193399354815483,119.33993548154832,3398437,55780,1969-02-02T15:00:00.000000000,-1.370826005935669,120.73517608642578,Asia
Bowen,Australia,-20.0013257,148.208669,10983,0.1192070841789245,119.20708417892456,4599366,29852,1960-03-20T15:00:00.000000000,-20.0,148.13999938964844,Oceania
Miyazaki,Japan,31.9182442,131.418376,324384,0.1191841810941696,119.18418109416962,1383960,10989,1953-10-05T18:00:00.000000000,31.810192108154297,131.53846740722656,Asia
Télimélé,Guinea,10.9050031,-13.0429976,30311,0.1189797893166542,118.9797893166542,2551336,4576,1951-07-27T03:00:00.000000000,10.931458473205566,346.9264831542969,Africa
Barclayville,Liberia,4.674102754887166,-8.23159527078132,2733,0.1186029016971588,118.6029016971588,2964460,13283,1954-07-19T12:00:00.000000000,4.745166778564453,351.71734619140625,Africa
Opobo,Nigeria,4.5704045,7.559993,34911,0.1183872818946838,118.38728189468384,2974422,13194,1954-07-08T09:00:00.000000000,4.534270763397217,7.524590015411377,Africa
Haeju,North Korea,38.039421,125.7143831,224231,0.1183199882507324,118.31998825073242,1109562,39890,1963-08-27T09:00:00.000000000,37.92618560791016,125.8791961669922,Asia
Guapi,Colombia,2.560398,-77.8599868,13853,0.1182514205574989,118.25142055749892,3116385,2345,1950-10-21T06:00:00.000000000,2.5659050941467285,282.1875,South America
Tuxpam,Mexico,20.9604118,-97.4099821,109049,0.1182087212800979,118.20872128009796,1941314,28677,1959-10-25T18:00:00.000000000,21.054481506347656,262.5989990234375,North America
Raoul Island Station,Kermadec Islands,-29.2465136,-177.9264115,0,0.1181378290057182,118.13782900571825,5089418,38627,1963-03-22T12:00:00.000000000,-29.20913887023925,182.07135009765625,Oceania
Pathein,Myanmar,16.7704092,94.7499682,237089,0.1176281198859214,117.62811988592148,2183020,44971,1965-05-23T12:00:00.000000000,16.83655548095703,94.7368392944336,Asia
Butterworth,Malaysia,5.4170711,100.4000109,821652,0.1168845668435096,116.88456684350967,2907764,52382,1967-12-05T21:00:00.000000000,5.518453121185303,100.29850769042967,Asia
Bissau,Guinea Bissau,11.8650238,-15.5983608,403339,0.1165600940585136,116.56009405851364,2492910,36977,1962-08-28T06:00:00.000000000,11.845342636108398,344.3548278808594,Africa
Makassar,Indonesia,-5.138013,119.4300817,1262000,0.1162411719560623,116.24117195606232,3661018,11488,1953-12-07T03:00:00.000000000,-5.096660614013672,119.55445861816406,Asia
Hubballi,India,15.3619243,75.1230704,890000,0.1162384897470474,116.23848974704742,2275695,30477,1960-06-06T18:00:00.000000000,15.289981842041016,75.1546401977539,Asia
Nanning,China,22.8219341,108.3180985,2167000,0.1162163913249969,116.21639132499696,1842393,51215,1967-07-13T00:00:00.000000000,22.81195068359375,108.09375,Asia
La Cruz,Costa Rica,11.0704212,-85.6300035,4319,0.1159585267305374,115.9585267305374,2545910,10910,1953-09-25T21:00:00.000000000,11.001757621765137,274.3085021972656,North America
Nasik,India,20.0023646,73.7780362,1473000,0.1159475296735763,115.94752967357635,1986800,7184,1952-06-17T03:00:00.000000000,20.21089553833008,73.66098022460938,Asia
Burhanpur,India,21.284520155461166,76.17240563336235,197233,0.1158606186509132,115.86061865091324,1919631,36917,1962-08-20T18:00:00.000000000,21.405975341796875,76.31632995605469,Asia
Luohe,China,33.5700039,114.02998,417356,0.11582513153553,115.82513153553008,1305096,4220,1951-06-12T15:00:00.000000000,33.49736404418945,114.05940246582033,Asia
Tiruvannamalai,India,12.2603744,79.0999674,138243,0.1157538816332817,115.75388163328172,2471803,13957,1954-10-11T18:00:00.000000000,12.126537322998049,79.23561096191406,Asia
Pakalongan,Indonesia,-6.8795943,109.6700394,272000,0.1155923902988433,115.59239029884338,3785603,56450,1969-04-27T09:00:00.000000000,-6.924428462982178,109.80606842041016,Asia
Ambanja,Madagascar,-13.6829,48.4500036,30621,0.1149806529283523,114.98065292835236,4221926,26368,1959-01-10T03:00:00.000000000,-13.673110008239746,48.38532257080078,Africa
Kozhikode,India,11.2523819,75.7680439,953000,0.1149577423930168,114.95774239301682,2520919,15802,1955-05-30T09:00:00.000000000,11.353251457214355,75.89492797851562,Asia
Vila Velha,Brazil,3.2166628,-51.2166519,1209091,0.1148452535271644,114.84525352716446,3067017,33283,1961-05-23T12:00:00.000000000,3.268892765045166,308.6025695800781,South America
Gandhinagar,India,23.218993822470544,72.64355575894791,195891,0.1144999563694,114.49995636940002,1815240,16533,1955-08-29T18:00:00.000000000,23.30404090881348,72.52885437011719,Asia
Hualien,Taiwan,23.9837415,121.6000089,350468,0.1144253313541412,114.42533135414124,1774078,30219,1960-05-05T12:00:00.000000000,24.077327728271484,121.71974182128906,Asia
Taichung,Taiwan,24.1520775,120.681667,2629323,0.1143313720822334,114.33137208223344,1766542,22342,1957-08-24T21:00:00.000000000,24.217926025390625,120.8297882080078,Asia
Camocim,Brazil,-2.8999922,-40.8500236,44481,0.114316426217556,114.316426217556,3506571,44337,1965-03-05T06:00:00.000000000,-2.847100019454956,319.123779296875,South America
Oklahoma City,United States of America,35.4719888,-97.5206294,788000,0.1143070310354232,114.30703103542328,1220598,57251,1969-08-05T12:00:00.000000000,35.39543151855469,262.5096130371094,North America
Wenzhou,China,28.0219268,120.6481469,2350000,0.1142877638339996,114.28776383399963,1576463,54478,1968-08-23T21:00:00.000000000,27.87346076965332,120.70945739746094,Asia
San Juan de Nicaragua,Nicaragua,10.9204045,-83.6999921,1000,0.1142632886767387,114.26328867673874,2554970,31750,1960-11-12T21:00:00.000000000,10.861159324645996,276.3716735839844,North America
Ratlam,India,23.3503951,75.0299833,307229,0.1141674146056175,114.16741460561752,1815268,48512,1966-08-09T03:00:00.000000000,23.30404090881348,75.17313385009766,Asia
Rizhao,China,35.4303813,119.4500109,865000,0.1141433492302894,114.14334923028946,1222481,28127,1959-08-18T00:00:00.000000000,35.325130462646484,119.34782409667967,Asia
Bocas del Toro,Panama,9.3353501,-82.2474707,9883,0.1141001060605049,114.10010606050491,2655420,10319,1953-07-14T00:00:00.000000000,9.314586639404297,277.8125,North America
Mahajanga,Madagascar,-15.6700138,46.3450158,154657,0.1140482127666473,114.04821276664734,4338205,26430,1959-01-17T21:00:00.000000000,-15.57117748260498,46.48165512084961,Africa
Mataram,Indonesia,-8.5795422,116.1350195,499409,0.1140303835272789,114.0303835272789,3889103,47203,1966-02-26T12:00:00.000000000,-8.471001625061035,116.21134185791016,Asia
Majene,Indonesia,-3.533597,118.9660095,272377,0.1139848679304122,113.98486793041228,3553371,12414,1954-04-01T21:00:00.000000000,-3.5500876903533936,118.95462036132812,Asia
Xai-Xai,Mozambique,-25.0399845,33.6400032,128805,0.1138744428753852,113.87444287538528,4879554,37977,1962-12-31T06:00:00.000000000,-25.13180923461914,33.59223175048828,Africa
Alipur Duar,India,26.4837439,89.566667,127342,0.1138418987393379,113.84189873933792,1647975,18838,1956-06-12T21:00:00.000000000,26.467485427856445,89.50440216064453,Asia
Pensacola,United States of America,30.4211263,-87.2169351,234384,0.1138032749295234,113.80327492952348,1445837,49184,1966-11-01T03:00:00.000000000,30.54481506347656,272.8588256835937,North America
Bundaberg,Australia,-24.8790641,152.3508968,52472,0.1136882379651069,113.68823796510696,4865912,44263,1965-02-24T00:00:00.000000000,-24.85061454772949,152.35231018066406,Oceania
Khammam,India,17.2804297,80.1600577,290839,0.113649234175682,113.64923417568208,2162006,45224,1965-06-24T03:00:00.000000000,17.18804931640625,80.13461303710938,Asia
San Cristóbal,Dominican Republic,18.4159981,-70.1090005,154040,0.1135305538773536,113.53055387735368,2090177,7858,1952-09-09T09:00:00.000000000,18.453426361083984,289.9902038574219,North America
Anyang,China,36.0819257,114.3480663,887000,0.1133973151445388,113.39731514453888,1185198,4516,1951-07-19T15:00:00.000000000,36.16871643066406,114.31169128417967,Asia
Norman,United States of America,35.22047017991464,-97.4419910256121,113525,0.11338971555233,113.38971555233002,1223725,57251,1969-08-05T12:00:00.000000000,35.325130462646484,262.5191955566406,North America
Krong Koh Kong,Cambodia,11.617539,102.9849329,33134,0.1132924705743789,113.29247057437895,2507802,15692,1955-05-16T15:00:00.000000000,11.564146995544434,103.01786041259766,Asia
Pasadena,United States of America,29.6608626,-95.147743,628492,0.1132913380861282,113.29133808612823,1493768,28650,1959-10-22T09:00:00.000000000,29.56063270568848,265.0,North America
Gujranwala,Pakistan,32.1623717,74.1830761,1513000,0.1131614819169044,113.16148191690444,1373465,56958,1969-06-29T21:00:00.000000000,32.021087646484375,73.93244934082031,Asia
Avarua,Cook Islands,-21.1962256,-159.7854367,5445,0.1130730807781219,113.07308077812196,4667363,37895,1962-12-21T00:00:00.000000000,-21.195077896118164,200.2339782714844,Oceania
Ziguinchor,Senegal,12.5899925,-16.2899982,191716,0.1129388138651847,112.93881386518478,2452871,36916,1962-08-20T15:00:00.000000000,12.478031158447266,343.6585388183594,Africa
Gorontalo,Indonesia,0.549978,123.0700484,365497,0.1129034757614135,112.90347576141356,3260609,1688,1950-07-31T03:00:00.000000000,0.5272407531738281,122.98355865478516,Asia
Saravan,Laos,15.715998,106.4269987,5521,0.1127801164984703,112.7801164984703,2250535,57461,1969-08-31T18:00:00.000000000,15.711774826049805,106.4561767578125,Asia
Nantou,Taiwan,23.9166667,120.6833333,165000,0.1126550212502479,112.65502125024796,1781609,1185,1950-05-29T06:00:00.000000000,23.936731338500977,120.60381317138672,Asia
Denpasar,Indonesia,-8.6500289,115.2199849,732344,0.1125808656215667,112.58086562156676,3893746,55618,1969-01-13T09:00:00.000000000,-8.541300773620605,115.30524444580078,Asia
Prachuap Khiri Khan,Thailand,11.802996,99.8000017,33521,0.1123419553041458,112.3419553041458,2494342,8624,1952-12-14T03:00:00.000000000,11.775043487548828,99.74932861328124,Asia
Kochi,India,10.0169534,76.2219697,1519000,0.1122698709368705,112.26987093687056,2597845,30324,1960-05-18T15:00:00.000000000,10.15817165374756,76.18421173095703,Asia
Heze,China,35.2319259,115.4481025,1338000,0.112126886844635,112.126886844635,1225578,10750,1953-09-05T21:00:00.000000000,35.25483322143555,115.63218688964844,Asia
Pointe-Noire,Congo (Brazzaville),-4.7700073,11.8800394,659084,0.1121094301342964,112.10943013429642,3635268,2311,1950-10-17T00:00:00.000000000,-4.745166778564453,11.832374572753906,Africa
Banyuwangi,Indonesia,-8.1950179,114.3695975,172424,0.1120615601539611,112.06156015396118,3875092,55613,1969-01-12T18:00:00.000000000,-8.26010513305664,114.44730377197266,Asia
Macau,Macau S.A.R,22.18913523490745,113.54437522184952,568700,0.1118497103452682,111.84971034526824,1881045,25618,1958-10-08T09:00:00.000000000,22.108963012695312,113.6597900390625,Asia
Nam Định,Vietnam,20.4200314,106.2000187,243186,0.1117697283625602,111.76972836256029,1971245,8040,1952-10-02T03:00:00.000000000,20.492090225219727,106.31420135498048,Asia
Thái Bình,Vietnam,20.4503041,106.3330296,210000,0.1117697283625602,111.76972836256029,1971245,8040,1952-10-02T03:00:00.000000000,20.492090225219727,106.31420135498048,Asia
Kamsar,Guinea,10.6854059,-14.6050106,34973,0.111719399690628,111.71939969062804,2564888,22283,1957-08-17T12:00:00.000000000,10.720561981201172,345.3710327148437,Africa
Silchar,India,24.7904106,92.7900362,152393,0.1116834133863449,111.68341338634492,1736305,48559,1966-08-15T00:00:00.000000000,24.78031539916992,92.80043029785156,Asia
Cabo de Santo Agostinho,Brazil,-8.2899992,-35.0299913,146219,0.1115100756287574,111.51007562875748,3887146,27466,1959-05-27T09:00:00.000000000,-8.400702476501465,324.9270324707031,South America
Karratha,Australia,-20.7303768,116.8700134,16796,0.1114977076649665,111.49770766496658,4638825,57936,1969-10-30T03:00:00.000000000,-20.70298767089844,116.81818389892578,Oceania
San Lorenzo,Paraguay,-25.3400179,-57.5200397,500000,0.1113021150231361,111.30211502313614,4889730,14577,1954-12-28T06:00:00.000000000,-25.27240753173828,302.5946044921875,South America
Kakinada,India,16.9674772,82.237502,292923,0.1111994534730911,111.19945347309113,2174524,46255,1965-10-31T00:00:00.000000000,16.97715187072754,82.14765167236328,Asia
Toamasina,Madagascar,-18.1817985,49.4049841,210226,0.1111353933811187,111.13539338111876,4492880,11605,1953-12-21T18:00:00.000000000,-18.172231674194336,49.47368240356445,Africa
Pontianak,Indonesia,-0.0299866,109.3199833,607311,0.1111333593726158,111.1333593726158,3306533,43513,1964-11-22T06:00:00.000000000,-0.1054481491446495,109.22057342529295,Asia
Bay City,United States of America,28.9811109,-95.9643598,18663,0.1110663041472435,111.0663041472435,1521543,16083,1955-07-04T12:00:00.000000000,28.998241424560547,264.1169738769531,North America
Đồng Hới,Vietnam,17.4833372,106.6000459,189265,0.110989861190319,110.98986119031906,2145706,15676,1955-05-14T15:00:00.000000000,17.4692440032959,106.50579071044922,Asia
Tarakan,Indonesia,3.3000169,117.6330159,193069,0.1107814908027648,110.78149080276488,3069343,46569,1965-12-09T06:00:00.000000000,3.198593854904175,117.6029052734375,Asia
Kolhapur,India,16.7,74.2200069,750000,0.1107703447341919,110.7703447341919,2195337,56765,1969-06-05T18:00:00.000000000,16.62565803527832,74.28434753417969,Asia
Bogue,Mauritania,16.5903943,-14.2699665,10415,0.1107147559523582,110.71475595235825,2202693,36946,1962-08-24T09:00:00.000000000,16.555360794067383,345.67205810546875,Africa
Beaufort,United States of America,32.4321664,-80.689504,31626,0.110644482076168,110.64448207616806,1358822,19557,1956-09-10T18:00:00.000000000,32.372581481933594,279.3932189941406,North America
Funafuti,Tuvalu,-8.516652,179.2166471,4749,0.1105976626276969,110.597662627697,3894571,28973,1959-12-01T18:00:00.000000000,-8.541300773620605,179.1487579345703,Oceania
Taian,China,36.2019443,117.1181298,1629000,0.11040810495615,110.40810495615004,1185220,51259,1967-07-18T12:00:00.000000000,36.16871643066406,116.88311767578124,Asia
Gaoual,Guinea,11.7540001,-13.2129984,7461,0.1103804633021354,110.38046330213548,2501880,48795,1966-09-13T12:00:00.000000000,11.704745292663574,346.7978515625,Africa
Sixaola,Costa Rica,9.5203866,-82.6199805,1823,0.1103125140070915,110.31251400709152,2641605,42691,1964-08-11T12:00:00.000000000,9.525483131408691,277.3629150390625,North America
Mocimboa,Mozambique,-11.3195817,40.3499812,27909,0.110292337834835,110.29233783483504,4075719,38981,1963-05-05T18:00:00.000000000,-11.353251457214355,40.31166458129883,Africa
San Juan,Puerto Rico,18.440023,-66.1299793,2478905,0.1102685183286666,110.26851832866669,2090220,5374,1951-11-03T21:00:00.000000000,18.453426361083984,293.77691650390625,North America
Davao,Philippines,7.1119628,125.6280496,1402000,0.1101115718483924,110.11157184839249,2812435,14983,1955-02-17T00:00:00.000000000,6.924428462982178,125.59021759033205,Asia
Waco,United States of America,31.5491712,-97.1463807,167347,0.1099424958229065,109.9424958229065,1391839,7907,1952-09-15T12:00:00.000000000,31.66959571838379,262.769775390625,North America
Güines,Cuba,22.8361371,-82.028027,68935,0.1099419221282005,109.94192212820052,1840366,7096,1952-06-06T03:00:00.000000000,22.88224983215332,277.97705078125,North America
Silvassa,India,20.2665782,73.0166178,27359,0.10975281894207,109.75281894207,1982808,4496,1951-07-17T03:00:00.000000000,20.28119468688965,73.01204681396484,Asia
Kagoshima,Japan,31.5859648,130.561064,555352,0.1096888184547424,109.68881845474245,1400637,4622,1951-08-01T21:00:00.000000000,31.45869827270508,130.43011474609375,Asia
Birganj,Nepal,27.0004049,84.8665922,133238,0.1096272990107536,109.62729901075365,1619008,4966,1951-09-13T21:00:00.000000000,27.02987670898437,84.80000305175781,Asia
Malegaon,India,20.5603587,74.5250012,690844,0.1095137670636177,109.5137670636177,1962960,39334,1963-06-18T21:00:00.000000000,20.632688522338867,74.47023010253906,Asia
Bragança,Brazil,-1.0500277,-46.7699982,57163,0.1094953268766403,109.49532687664032,3375801,15371,1955-04-06T12:00:00.000000000,-1.0193321704864502,313.2992248535156,South America
Brikama,The Gambia,13.2803638,-16.6599498,195136,0.1094245165586471,109.42451655864716,2404381,28125,1959-08-17T18:00:00.000000000,13.251317977905272,343.3302917480469,Africa
Haldia,India,22.0256698,88.0583353,200762,0.1093959584832191,109.39595848321916,1884650,16941,1955-10-19T18:00:00.000000000,22.038663864135746,88.05355072021484,Asia
Machilipatnam,India,16.2004181,81.1799955,192827,0.1093244552612304,109.32445526123048,2220634,52071,1967-10-28T00:00:00.000000000,16.203866958618164,81.11954498291016,Asia
Tanjungpinang,Indonesia,0.916829,104.471442,226666,0.1092698946595192,109.2698946595192,3239948,29401,1960-01-24T06:00:00.000000000,0.80843585729599,104.35192108154295,Asia
Kōchi,Japan,33.5624333,133.5375232,335570,0.1092024594545364,109.20245945453644,1298817,5170,1951-10-09T09:00:00.000000000,33.637962341308594,133.66004943847656,Asia
Jashore,Bangladesh,23.1704319,89.1999711,243987,0.1091476380825042,109.14763808250429,1826866,36251,1962-05-29T12:00:00.000000000,23.0931453704834,89.05857849121094,Asia
Monterrey,Mexico,25.671941,-100.3319306,3712000,0.10914346575737,109.14346575737,1693575,10792,1953-09-11T03:00:00.000000000,25.6239013671875,259.728271484375,North America
Basse Santa Su,The Gambia,13.3100011,-14.2229965,14380,0.1090924590826034,109.09245908260344,2400027,7661,1952-08-15T18:00:00.000000000,13.321616172790527,345.78082275390625,Africa
Jinhua,China,29.1200429,119.6499987,1092852,0.1089038923382759,108.90389233827592,1520143,19384,1956-08-20T03:00:00.000000000,28.998241424560547,119.6215591430664,Asia
Laiyang,China,36.9684011,120.7084354,250000,0.1088166460394859,108.81664603948592,1154658,10755,1953-09-06T12:00:00.000000000,36.8717041015625,120.5526351928711,Asia
Marovoay,Madagascar,-16.0995483,46.6333186,31253,0.1087917760014534,108.7917760014534,4372106,49992,1967-02-10T03:00:00.000000000,-16.133567810058594,46.57819747924805,Africa
Culiacán,Mexico,24.8319406,-107.3819138,809000,0.1087454557418823,108.74545574188232,1734234,52011,1967-10-20T12:00:00.000000000,24.85061454772949,252.696029663086,North America
Haiphong,Vietnam,20.8319522,106.6781469,1969000,0.1087327301502227,108.73273015022278,1959356,31374,1960-09-26T21:00:00.000000000,20.70298767089844,106.90908813476562,Asia
Santos,Brazil,-23.961835598193822,-46.32849571460007,1709000,0.1086976826190948,108.69768261909483,4815071,3583,1951-03-25T00:00:00.000000000,-23.866432189941406,313.4285583496094,South America
La Ceiba,Honduras,15.7631063,-86.7969865,145926,0.1086016818881034,108.60168188810349,2252501,26009,1958-11-26T06:00:00.000000000,15.711774826049805,273.223388671875,North America
Semarang,Indonesia,-6.9646716,110.4180736,1396000,0.1085652783513069,108.56527835130692,3776111,53805,1968-05-31T18:00:00.000000000,-6.7838311195373535,110.2272720336914,Asia
Recife,Brazil,-8.06053182704913,-34.908765500024515,3651000,0.1085566505789756,108.55665057897568,3877821,27193,1959-04-23T06:00:00.000000000,-8.26010513305664,324.9100341796875,South America
Jaqué,Panama,7.5189584,-78.1660147,1357,0.1084849834442138,108.48498344421388,2771950,57168,1969-07-26T03:00:00.000000000,7.557117462158203,281.8521728515625,North America
Zhengzhou,China,34.756942,113.6631469,2636000,0.1083765253424644,108.37652534246445,1250737,4470,1951-07-13T21:00:00.000000000,34.69244384765625,113.43868255615234,Asia
Gwangju,South Korea,35.1729115,126.9084883,1440000,0.1083327680826187,108.33276808261871,1231945,19442,1956-08-27T09:00:00.000000000,35.114234924316406,126.68789672851562,Asia
Nagercoil,India,8.180365,77.4299918,224329,0.1078930497169494,107.89304971694946,2736425,11381,1953-11-23T18:00:00.000000000,8.049208641052246,77.30769348144531,Asia
Warri,Nigeria,5.5199589,5.7599996,830106,0.1078842729330062,107.88427293300629,2901676,54521,1968-08-29T06:00:00.000000000,5.588752269744873,5.676348686218262,Africa
Beira,Mozambique,-19.8200447,34.8700057,530604,0.1078365370631218,107.8365370631218,4582070,55542,1969-01-03T21:00:00.000000000,-19.71880531311035,34.96015930175781,Africa
Limón,Costa Rica,10.0000214,-83.0333403,85001,0.1077942252159118,107.79422521591188,2609519,48044,1966-06-11T15:00:00.000000000,10.017574310302734,277.0140075683594,North America
Hilo,United States of America,19.705642844165897,-155.08153952277408,52391,0.107745312154293,107.74531215429306,2016270,14088,1954-10-28T03:00:00.000000000,19.71880531311035,204.9203186035156,North America
Dagupan,Philippines,16.0478951,120.3408093,163676,0.1077205389738082,107.72053897380827,2237987,54305,1968-08-02T06:00:00.000000000,15.9226713180542,120.36862182617188,Asia
Jinxi,China,40.7522867,120.8280325,2426000,0.1076679229736328,107.6679229736328,1002022,16513,1955-08-27T06:00:00.000000000,40.52724075317383,120.76271057128906,Asia
Buchanan,Liberia,5.9160846,-10.052472,48315,0.1076187267899513,107.61872678995132,2887029,13219,1954-07-11T12:00:00.000000000,5.8699469566345215,349.8834228515625,Africa
Fuzhou,China,26.0819418,119.2981001,2606000,0.1075640246272087,107.56402462720872,1670137,51681,1967-09-09T06:00:00.000000000,26.04569435119629,119.4420166015625,Asia
Quảng Trị,Vietnam,16.7503587,107.2000093,72722,0.1074353829026222,107.43538290262222,2187346,1902,1950-08-26T21:00:00.000000000,16.76625633239746,107.20841217041016,Asia
Bata,Equatorial Guinea,1.8700008,9.7699873,173046,0.1073635518550872,107.36355185508728,3152655,24897,1958-07-10T06:00:00.000000000,2.0035150051116943,9.673566818237305,Africa
Labutta,Myanmar,16.1618933,94.7014441,1667,0.1073407232761383,107.3407232761383,2225010,4448,1951-07-11T03:00:00.000000000,16.133567810058594,94.6919403076172,Asia
Taree,Australia,-31.8976021,152.4618461,44182,0.1070926040410995,107.09260404109956,5218343,17938,1956-02-21T09:00:00.000000000,-31.880491256713867,152.38267517089844,Oceania
Ambon,Indonesia,-3.7166866,128.2000195,355596,0.1070594191551208,107.05941915512084,3563362,42256,1964-06-18T03:00:00.000000000,-3.690685272216797,128.13311767578125,Asia
Ulsan,South Korea,35.5486766,129.315008,1061000,0.1070451214909553,107.04512149095537,1222570,39643,1963-07-27T12:00:00.000000000,35.325130462646484,129.59078979492188,Asia
Londrina,Brazil,-23.300039,-51.1799874,520238,0.1069175153970718,106.91751539707184,4788475,2777,1950-12-14T06:00:00.000000000,-23.374340057373047,308.85504150390625,South America
Yala,Thailand,6.5504903,101.2850732,148140,0.106910765171051,106.91076517105104,2835881,52452,1967-12-14T15:00:00.000000000,6.572934627532959,101.33501434326172,Asia
Bolgatanga,Ghana,10.7903866,-0.8499846,82177,0.1068202853202819,106.82028532028198,2565061,4563,1951-07-25T12:00:00.000000000,10.720561981201172,359.1254272460937,Africa
Jamalpur,Bangladesh,24.9004297,89.9500028,167900,0.1068187281489372,106.81872814893724,1732552,1214,1950-06-01T21:00:00.000000000,24.85061454772949,90.09667205810548,Asia
Moradabad,India,28.8437371,78.7548384,787000,0.1068169549107551,106.81695491075516,1533727,43045,1964-09-24T18:00:00.000000000,28.7170467376709,78.8013687133789,Asia
Douala,Cameroon,4.0623556,9.7080451,1906000,0.1068083718419075,106.8083718419075,3018519,54312,1968-08-03T03:00:00.000000000,3.901581764221192,9.886086463928224,Africa
Lagos,Nigeria,6.4452075,3.3895852,9466000,0.1067994385957717,106.7994385957718,2858444,10433,1953-07-28T06:00:00.000000000,6.22144079208374,3.3110368251800537,Africa
Almirante,Panama,9.3000124,-82.3999681,8114,0.1066595613956451,106.65956139564514,2660028,14322,1954-11-26T09:00:00.000000000,9.244288444519045,277.5715637207031,North America
Kure,Japan,34.2509701,132.5655928,196991,0.1065372750163078,106.53727501630785,1269958,28299,1959-09-08T12:00:00.000000000,34.27064895629883,132.5721435546875,Asia
Nakhon Si Thammarat,Thailand,8.3999898,99.9700114,232335,0.1065233647823333,106.52336478233336,2708716,40495,1963-11-11T00:00:00.000000000,8.471001625061035,99.89690399169922,Asia
Olongapo,Philippines,14.8295716,120.2827767,304388,0.1064263209700584,106.42632097005844,2310498,4003,1951-05-16T12:00:00.000000000,14.727591514587402,120.39070129394533,Asia
Eldorado,Mexico,24.3304645,-107.3699943,17365,0.1063625589013099,106.36255890130997,1764159,2426,1950-10-31T09:00:00.000000000,24.288225173950195,252.555908203125,North America
Reyes,Bolivia,-14.3095801,-67.370007,7376,0.1063146591186523,106.31465911865234,4268272,23084,1957-11-25T15:00:00.000000000,-14.376097679138184,292.6666564941406,South America
La Unión,El Salvador,13.331997,-87.8390005,26807,0.1062320470809936,106.23204708099364,2394752,12898,1954-06-01T09:00:00.000000000,13.391915321350098,272.1389465332031,North America
Kribi,Cameroon,2.9404265,9.9100305,55224,0.1060782000422477,106.07820004224776,3082741,33835,1961-07-31T12:00:00.000000000,2.98769760131836,9.927536010742188,Africa
Dawei,Myanmar,14.0979625,98.1949776,146212,0.106077991425991,106.07799142599106,2349087,45887,1965-09-15T00:00:00.000000000,14.094902992248535,98.21955871582033,Asia
Itanhaem,Brazil,-24.1799853,-46.8000222,90385,0.1060751974582672,106.0751974582672,4830151,38027,1963-01-06T12:00:00.000000000,-24.14762687683105,313.2305908203125,South America
Hsinchu,Taiwan,24.8167914,120.9767395,750000,0.1060595959424972,106.05959594249724,1732870,24528,1958-05-25T03:00:00.000000000,24.85061454772949,120.83780670166016,Asia
Alappuzha,India,9.5004136,76.3700048,176783,0.1057137697935104,105.71376979351044,2648236,50873,1967-05-31T06:00:00.000000000,9.384885787963867,76.31624603271484,Asia
Kimbe,Papua New Guinea,-5.5500029,150.1430137,18847,0.1056223958730697,105.62239587306976,3690447,9256,1953-03-03T03:00:00.000000000,-5.518453121185303,150.0746307373047,Oceania
Gorom Gorom,Burkina Faso,14.450004,-0.2332975,6691,0.1056097373366355,105.6097373366356,2330598,39941,1963-09-02T18:00:00.000000000,14.446396827697754,359.83319091796875,Africa
Ōsaka,Japan,34.691095244477914,135.50375419006232,11294000,0.1055738106369972,105.57381063699722,1269988,34337,1961-10-02T06:00:00.000000000,34.27064895629883,135.95985412597656,Asia
Warangal,India,18.0099976,79.5799898,1203853,0.1055651307106018,105.5651307106018,2108271,40173,1963-10-01T18:00:00.000000000,18.10193252563477,79.48393249511719,Asia
Catió,Guinea Bissau,11.273036476461993,-15.25424569133715,9898,0.1055322140455246,105.5322140455246,2528769,48543,1966-08-13T00:00:00.000000000,11.282952308654783,344.7064208984375,Africa
Dondo,Mozambique,-19.6195919,34.7300142,78648,0.1054929941892623,105.4929941892624,4574025,20176,1956-11-27T03:00:00.000000000,-19.57820701599121,34.80119323730469,Africa
Madang,Papua New Guinea,-5.2248116,145.785251,62023,0.1054918766021728,105.49187660217284,3666218,40943,1964-01-06T00:00:00.000000000,-5.166959285736084,145.81336975097656,Oceania
Alotau,Papua New Guinea,-10.3020727,150.4590743,11624,0.1054752841591835,105.4752841591835,4009259,48341,1966-07-18T18:00:00.000000000,-10.2987699508667,150.50088500976562,Oceania
Abidjan,Ivory Coast,5.323126072244572,-4.020206835187587,3802000,0.1053680703043937,105.36807030439375,2920850,45264,1965-06-29T03:00:00.000000000,5.377855777740479,355.976806640625,Africa
Kangar,Malaysia,6.433002,100.1899987,63869,0.1052706018090248,105.2706018090248,2840631,27312,1959-05-08T03:00:00.000000000,6.502635955810547,100.19295501708984,Asia
Taitung,Taiwan,22.7553927,121.140037,175000,0.105210967361927,105.21096736192705,1842531,4585,1951-07-28T06:00:00.000000000,22.81195068359375,121.03125,Asia
Sarasota,United States of America,27.3361208,-82.530787,589959,0.1052041053771972,105.20410537719728,1610150,7739,1952-08-25T12:00:00.000000000,27.240772247314453,277.52508544921875,North America
Maumere,Indonesia,-8.618868,122.212323,104285,0.1051431596279144,105.14315962791444,3893837,2905,1950-12-30T06:00:00.000000000,-8.541300773620605,122.34737396240234,Asia
West Palm Beach,United States of America,26.74502,-80.1236213,1250000,0.1048197075724601,104.81970757246016,1635394,55216,1968-11-24T03:00:00.000000000,26.748682022094727,279.7566223144531,North America
Kollam,India,8.9003727,76.5699926,394163,0.1048137545585632,104.81375455856325,2671303,36139,1962-05-15T12:00:00.000000000,9.033391952514648,76.53114318847656,Asia
Gujrat,Pakistan,32.5799868,74.0800154,301506,0.1047624051570892,104.76240515708923,1350361,56953,1969-06-29T06:00:00.000000000,32.513179779052734,74.12408447265625,Asia
Hat Yai,Thailand,6.9964321,100.4714278,317954,0.1046940386295318,104.69403862953186,2802627,58079,1969-11-17T00:00:00.000000000,7.06502628326416,100.56587982177734,Asia
Robertsport,Liberia,6.7533203,-11.3685932,11969,0.1046247035264968,104.62470352649687,2824873,54536,1968-08-31T03:00:00.000000000,6.7838311195373535,348.56060791015625,Africa
Port Harcourt,Nigeria,4.8119481,7.0080549,1020000,0.1045497804880142,104.54978048801422,2969536,13193,1954-07-08T06:00:00.000000000,4.604569435119629,6.792452812194824,Africa
Indore,India,22.7170051,75.8630769,2026000,0.1045093759894371,104.5093759894371,1842051,1862,1950-08-21T21:00:00.000000000,22.81195068359375,76.03125,Asia
Nuquí,Colombia,5.6851801,-77.2745484,2741,0.1044756397604942,104.47563976049425,2900567,20113,1956-11-19T06:00:00.000000000,5.659050941467285,282.7823791503906,South America
Luba,Equatorial Guinea,3.449997,8.5500005,8655,0.1044744625687599,104.47446256875992,3052997,2162,1950-09-28T09:00:00.000000000,3.4094903469085693,8.519417762756348,Africa
Apia,Samoa,-13.835714958212938,-171.76859897688345,61916,0.1044660583138465,104.4660583138466,4236681,1216,1950-06-02T03:00:00.000000000,-13.88400650024414,188.1968688964844,Oceania
Broome,Australia,-17.9617707,122.2307681,13218,0.1044335067272186,104.43350672721864,4485492,26670,1959-02-16T21:00:00.000000000,-18.031633377075195,122.2178955078125,Oceania
Beijing,China,39.90172030986268,116.39420089260612,11106000,0.1043403595685958,104.34035956859589,1036248,48773,1966-09-10T18:00:00.000000000,39.68365478515625,116.0,Asia
Arawa,Papua New Guinea,-6.228,155.5659907,40266,0.1043188944458961,104.31889444589616,3738563,22147,1957-07-31T12:00:00.000000000,-6.22144079208374,155.54347229003906,Oceania
Formosa,Argentina,-26.1728353,-58.1828158,221383,0.1043141558766365,104.3141558766365,4941110,20513,1957-01-08T06:00:00.000000000,-26.256589889526367,301.71240234375,South America
Parnaíba,Brazil,-2.9100175,-41.7699675,138008,0.1043045371770858,104.30453717708588,3501582,6593,1952-04-04T06:00:00.000000000,-2.776801347732544,318.21685791015625,South America
Xuzhou,China,34.2819581,117.1780744,2091000,0.1043037176132202,104.3037176132202,1269821,42441,1964-07-11T06:00:00.000000000,34.27064895629883,117.10163116455078,Asia
Dar es Salaam,Tanzania,-6.7980667,39.266396,2930000,0.104248434305191,104.24843430519104,3784674,38826,1963-04-16T09:00:00.000000000,-6.924428462982178,39.30860137939453,Africa
Hinthada,Myanmar,17.6482626,95.4678572,180728,0.104203462600708,104.203462600708,2129039,3966,1951-05-11T21:00:00.000000000,17.750438690185547,95.4941864013672,Asia
João Pessoa,Brazil,-7.0991893,-34.878017,956000,0.1041008234024047,104.1008234024048,3793182,50947,1967-06-09T12:00:00.000000000,-6.994727611541748,325.2151794433594,South America
Nagoya,Japan,35.1569434,136.9130456,3230000,0.1040927320718765,104.09273207187653,1238322,10809,1953-09-13T06:00:00.000000000,34.973636627197266,137.0012664794922,Asia
Rajapalaiyam,India,9.4203927,77.5800085,369991,0.1040845438838005,104.0845438838005,2643653,20204,1956-11-30T15:00:00.000000000,9.45518398284912,77.71304321289062,Asia
Libreville,Gabon,0.3853886,9.457965,578156,0.1040744259953498,104.07442599534988,3269217,54730,1968-09-24T09:00:00.000000000,0.3866432309150696,9.358874320983888,Africa
Pyongyang,North Korea,39.0213846,125.7527449,3300000,0.1040588021278381,104.05880212783812,1062404,1589,1950-07-18T18:00:00.000000000,39.05096435546875,125.9259262084961,Asia
Siliguri,India,26.720422,88.4550036,515574,0.1038350984454155,103.8350984454155,1640710,27617,1959-06-15T06:00:00.000000000,26.608083724975582,88.41059875488281,Asia
Manga,Burkina Faso,11.662002,-1.0649964,15173,0.103757306933403,103.75730693340302,2506506,10712,1953-09-01T03:00:00.000000000,11.634446144104004,358.8739929199219,Africa
Forecariah,Guinea,9.4300021,-13.0979966,12358,0.1037053167819976,103.70531678199768,2647093,4505,1951-07-18T06:00:00.000000000,9.45518398284912,346.930419921875,Africa
Beaumont,United States of America,30.086263,-94.1016828,111485,0.1036882326006889,103.68823260068892,1462827,16700,1955-09-19T15:00:00.000000000,30.193321228027344,266.0,North America
Bamako,Mali,12.6519605,-8.001985,1494000,0.1036786586046218,103.67865860462187,2448544,10722,1953-09-02T09:00:00.000000000,12.548330307006836,351.8625793457031,Africa
São Luís,Brazil,-2.5140388,-44.2679367,1038000,0.1035716906189918,103.57169061899184,3471602,6473,1952-03-20T06:00:00.000000000,-2.355008840560913,315.5395812988281,South America
Jianmen,China,30.6519988,113.1580614,1708000,0.1035519316792488,103.5519316792488,1430763,39243,1963-06-07T12:00:00.000000000,30.82600975036621,113.0851058959961,Asia
Comandante Fontana,Argentina,-25.3332999,-59.6833185,4277,0.1035379320383071,103.5379320383072,4889706,38611,1963-03-20T12:00:00.000000000,-25.27240753173828,300.25946044921875,South America
Padang,Indonesia,-0.9580614,100.3580675,855000,0.1035249829292297,103.52498292922974,3372795,9749,1953-05-03T18:00:00.000000000,-1.0193321704864502,100.2755889892578,Asia
Kanchipuram,India,12.8337244,79.7166739,155029,0.1034682765603065,103.46827656030656,2427541,2539,1950-11-14T12:00:00.000000000,12.829524993896484,79.79129028320312,Asia
Wuxi,China,31.581942,120.298039,1749000,0.1034617573022842,103.46175730228424,1390519,53967,1968-06-21T00:00:00.000000000,31.66959571838379,120.32373809814452,Asia
Nanjing,China,32.051965,118.7780285,3679000,0.1033747196197509,103.37471961975098,1367254,13139,1954-07-01T12:00:00.000000000,32.16168594360352,118.62152099609376,Asia
Salina Cruz,Mexico,16.167061,-95.1999878,81063,0.1030726805329322,103.07268053293228,2227004,4260,1951-06-17T15:00:00.000000000,16.133567810058594,264.79620361328125,North America
Zanzibar,Tanzania,-6.16,39.2000256,403658,0.10307078063488,103.07078063488008,3732230,29953,1960-04-02T06:00:00.000000000,-6.151142120361328,39.24811935424805,Africa
Panama City,Panama,8.969963,-79.534983,1281000,0.1030536070466041,103.05360704660416,2692454,42193,1964-06-10T06:00:00.000000000,8.752196311950684,280.39654541015625,North America
Quảng Ngãi,Vietnam,15.1504305,108.8299873,250000,0.1030068770051002,103.00687700510024,2288913,52144,1967-11-06T03:00:00.000000000,15.07908535003662,108.75701141357422,Asia
Gifu,Japan,35.4230949,136.7627526,412895,0.1030038148164749,103.00381481647491,1222632,37362,1962-10-15T09:00:00.000000000,35.325130462646484,136.72634887695312,Asia
Đông Hà,Vietnam,16.8499981,107.1333007,17662,0.1028800532221794,102.8800532221794,2178986,57463,1969-09-01T00:00:00.000000000,16.9068546295166,107.06896209716795,Asia
Busan,South Korea,35.0969988,129.0081017,3480000,0.1028743535280227,102.87435352802277,1228830,4656,1951-08-06T03:00:00.000000000,35.184532165527344,129.2602081298828,Asia
Zhuozhou,China,39.5400529,115.789976,628000,0.1028038561344146,102.80385613441469,1039129,48773,1966-09-10T18:00:00.000000000,39.61335754394531,115.96393585205078,Asia
Chumphon,Thailand,10.5126774,99.1872168,85686,0.1027799844741821,102.77998447418211,2570854,32004,1960-12-14T15:00:00.000000000,10.579964637756348,99.20635223388672,Asia
Huaibei,China,33.9523141,116.7480749,913000,0.1027532517910003,102.75325179100037,1279397,1692,1950-07-31T15:00:00.000000000,34.05975341796875,116.6624984741211,Asia
San-Pedro,Ivory Coast,4.7704181,-6.6399671,210273,0.1027285978198051,102.72859781980516,2964481,30585,1960-06-20T06:00:00.000000000,4.745166778564453,353.27032470703125,Africa
Pijijiapan,Mexico,15.6903976,-93.2200312,23675,0.1025618463754654,102.5618463754654,2256672,48938,1966-10-01T09:00:00.000000000,15.641475677490234,266.7796630859375,North America
Darwin,Australia,-12.425354,130.8500386,93080,0.1025275737047195,102.52757370471954,4148217,52539,1967-12-25T12:00:00.000000000,-12.478031158447266,130.81300354003906,Oceania
San Carlos,Bolivia,-17.3999857,-63.7299966,6353,0.1024215146899223,102.42151468992232,4454466,8921,1953-01-20T06:00:00.000000000,-17.4692440032959,296.23553466796875,South America
Samut Songkhram,Thailand,13.412997,100.0009986,35065,0.1023767292499542,102.37672924995422,2388287,11031,1953-10-11T00:00:00.000000000,13.462214469909668,100.04574584960938,Asia
Yogyakarta,Indonesia,-7.7799528,110.3750093,636660,0.1021302789449691,102.13027894496918,3846954,35190,1962-01-16T21:00:00.000000000,-7.83831262588501,110.33248138427734,Asia
Neiafu,Tonga,-18.6495735,-173.9832927,7391,0.1020323932170867,102.0323932170868,4523066,7069,1952-06-02T18:00:00.000000000,-18.66432380676269,186.00588989257807,Oceania
Rampur,India,28.8153587,79.0249849,296418,0.1020301207900047,102.03012079000472,1523240,22642,1957-10-01T09:00:00.000000000,28.927942276000977,79.17525482177734,Asia
Chennai,India,13.0919337,80.2780529,7163000,0.1020216345787048,102.02163457870483,2423143,2538,1950-11-14T09:00:00.000000000,12.899824142456056,80.3542251586914,Asia
Naga,Philippines,13.6191545,123.1813594,741635,0.1020034849643707,102.00348496437071,2371116,34554,1961-10-29T09:00:00.000000000,13.743409156799316,123.3057861328125,Asia
Ranchi,India,23.3719522,85.3280805,1044000,0.1019513309001922,101.95133090019226,1823005,21973,1957-07-09T18:00:00.000000000,23.16344451904297,85.28795623779297,Asia
Brusque,Brazil,-27.1299861,-48.9300214,88284,0.1019432619214057,101.9432619214058,4984627,35025,1961-12-27T06:00:00.000000000,-27.100175857543945,311.04559326171875,South America
Ratchaburi,Thailand,13.5418982,99.821545,106996,0.1018139272928237,101.8139272928238,2375190,20024,1956-11-08T03:00:00.000000000,13.673110008239746,99.90825653076172,Asia
Gangneung,South Korea,37.7558724,128.8961527,180611,0.1017081215977668,101.70812159776688,1112567,22370,1957-08-28T09:00:00.000000000,37.85588836669922,128.72654724121094,Asia
Viseu,Brazil,-1.1964787,-46.1400108,18958,0.1016445457935333,101.64454579353333,3391026,26685,1959-02-18T18:00:00.000000000,-1.2302284240722656,313.82794189453125,South America
Dublin,United States of America,32.5374571,-82.9182827,22623,0.1016154065728187,101.61540657281876,1348927,5112,1951-10-02T03:00:00.000000000,32.58348083496094,277.0158386230469,North America
Panipat,India,29.4004134,76.9699682,292808,0.1015749499201774,101.57494992017746,1502344,10208,1953-06-30T03:00:00.000000000,29.34973526000977,76.81661224365234,Asia
Arroyos y Esteros,Paraguay,-25.0499581,-57.0899884,3055,0.1014420837163925,101.44208371639252,4878620,2422,1950-10-30T21:00:00.000000000,-25.06151008605957,302.9741516113281,South America
Ninh Bình,Vietnam,20.254305,105.9750195,130517,0.1012855768203735,101.28557682037354,1987159,28328,1959-09-12T03:00:00.000000000,20.21089553833008,106.06820678710938,Asia
Santo António,Sao Tome and Principe,1.6450021,7.4120045,1156,0.1012092158198356,101.20921581983566,3177784,27921,1959-07-23T06:00:00.000000000,1.652021050453186,7.422680377960205,Africa
Koudougou,Burkina Faso,12.2504783,-2.3699952,87347,0.101163700222969,101.16370022296906,2470794,4535,1951-07-22T00:00:00.000000000,12.196836471557615,357.5697631835937,Africa
Nampo,North Korea,38.7688666,125.450488,1127000,0.1011080369353294,101.10803693532944,1068237,22171,1957-08-03T12:00:00.000000000,38.91036987304688,125.2120361328125,Asia
Ponce,Puerto Rico,18.0003858,-66.6166421,160334,0.1010394394397735,101.03943943977356,2110713,39869,1963-08-24T18:00:00.000000000,18.10193252563477,293.4858703613281,North America
Ninde,China,26.6803727,119.5300577,314077,0.1010236516594886,101.02365165948868,1641024,51679,1967-09-09T00:00:00.000000000,26.608083724975582,119.60264587402344,Asia
Budaun,India,28.0300061,79.0899939,161555,0.1010064110159874,101.0064110159874,1572504,21877,1957-06-27T18:00:00.000000000,27.94375991821289,79.14318084716797,Asia
Burketown,Australia,-17.7160905,139.5666125,200,0.1009905859827995,100.99058598279952,4469208,17556,1956-01-04T15:00:00.000000000,-17.750438690185547,139.53488159179688,Oceania
Nandi,Fiji,-17.7995996,177.4166019,42284,0.1009429395198822,100.9429395198822,4473769,26227,1958-12-23T12:00:00.000000000,-17.820737838745117,177.46847534179688,Oceania
Pune,India,18.516394229926583,73.85189174674915,4672000,0.1008093431591987,100.80934315919876,2071405,27709,1959-06-26T18:00:00.000000000,18.73462104797364,73.64440155029297,Asia
Hetauda,Nepal,27.4166844,85.033352,232334,0.1007860600948333,100.78606009483336,1593917,4950,1951-09-11T21:00:00.000000000,27.5219669342041,85.1623764038086,Asia
Bhimphedi,Nepal,27.5509981,85.1300016,15000,0.1007860600948333,100.78606009483336,1593917,4950,1951-09-11T21:00:00.000000000,27.5219669342041,85.1623764038086,Asia
Wonsan,North Korea,39.1604895,127.4308158,329207,0.1007701680064201,100.77016800642014,1059502,19405,1956-08-22T18:00:00.000000000,39.12126541137695,127.33516693115234,Asia
Varanasi,India,25.3319359,82.9980936,1352000,0.1007363721728324,100.73637217283247,1706514,36863,1962-08-14T00:00:00.000000000,25.34270668029785,82.79220581054688,Asia
Greenville,Liberia,5.0111269,-9.0388129,10374,0.1007348746061325,100.73487460613252,2945002,22120,1957-07-28T03:00:00.000000000,5.02636194229126,350.94805908203125,Africa
Santo André,Brazil,-23.652834,-46.5278166,662373,0.1007110401988029,100.71104019880296,4807505,47104,1966-02-14T03:00:00.000000000,-23.725833892822266,313.3368530273437,South America
Shizuoka,Japan,34.9858348,138.3853926,701561,0.1006992235779762,100.69922357797624,1232046,57758,1969-10-07T21:00:00.000000000,35.114234924316406,138.26751708984375,Asia
Cozumel,Mexico,20.51,-86.9500004,73934,0.1006811186671257,100.6811186671257,1973085,11727,1954-01-06T00:00:00.000000000,20.492090225219727,273.0815734863281,North America
Chandrapur,India,19.9699813,79.3000069,595118,0.1006717830896377,100.67178308963776,2006846,51083,1967-06-26T12:00:00.000000000,19.85940170288086,79.2215576171875,Asia
Bhairawa,Nepal,27.5333041,83.3832995,63367,0.1004709899425506,100.47098994255066,1590331,1431,1950-06-29T00:00:00.000000000,27.592266082763672,83.44170379638672,Asia
Sibolga,Indonesia,1.7499823,98.8000052,217312,0.1004554703831672,100.45547038316728,3174022,2581,1950-11-19T18:00:00.000000000,1.7223198413848877,98.71428680419922,Asia
Bắc Giang,Vietnam,21.2670081,106.2000187,53728,0.1004504635930061,100.45046359300612,1923878,8047,1952-10-03T00:00:00.000000000,21.335676193237305,106.23853302001952,Asia
Pathum Thani,Thailand,14.0171147,100.5333361,154412,0.1004237905144691,100.42379051446916,2362137,20031,1956-11-09T00:00:00.000000000,13.88400650024414,100.43238067626952,Asia
Indramayu,Indonesia,-6.3356482,108.3190108,123263,0.1003367230296135,100.3367230296135,3737935,12939,1954-06-06T12:00:00.000000000,-6.22144079208374,108.28594970703124,Asia
Jaboatao,Brazil,-8.1100102,-35.0200436,702621,0.1003341600298881,100.33416002988815,3873153,27193,1959-04-23T06:00:00.000000000,-8.189806938171387,324.9400634765625,South America
Puzi,Taiwan,23.4611111,120.2419444,50000,0.1003043130040168,100.30431300401688,1808130,16638,1955-09-11T21:00:00.000000000,23.444639205932617,120.18927764892578,Asia
Tampico,Mexico,22.30002,-97.8700057,859419,0.1001991778612136,100.19917786121368,1867153,8298,1952-11-03T09:00:00.000000000,22.39015769958496,262.08074951171875,North America
Ciudad Madero,Mexico,22.3189077,-97.836106,192736,0.1001991778612136,100.19917786121368,1867153,8298,1952-11-03T09:00:00.000000000,22.39015769958496,262.08074951171875,North America
Minatitlán,Mexico,17.9804645,-94.5300029,201902,0.100153312087059,100.15331208705902,2110394,14651,1955-01-06T12:00:00.000000000,18.10193252563477,265.5306701660156,North America
Coatzacoalcos,Mexico,18.1204043,-94.4200096,287285,0.100153312087059,100.15331208705902,2110394,14651,1955-01-06T12:00:00.000000000,18.10193252563477,265.5306701660156,North America
Matamoros,Mexico,25.8799823,-97.5000025,538785,0.1001295670866966,100.12956708669662,1686249,53220,1968-03-19T15:00:00.000000000,25.764497756958008,262.45098876953125,North America
Mackay,Australia,-21.1438916,149.1500069,75922,0.1001200079917907,100.12000799179076,4662870,9167,1953-02-20T00:00:00.000000000,-21.124780654907227,149.0853729248047,Oceania
Horqueta,Paraguay,-23.3396232,-57.0500167,16171,0.1000972315669059,100.09723156690598,4784604,5898,1952-01-08T09:00:00.000000000,-23.30404090881348,302.9590759277344,South America
Poza Rica de Hidalgo,Mexico,20.525714761967706,-97.44394909450384,254481,0.1000842303037643,100.08423030376434,1976944,7009,1952-05-26T06:00:00.000000000,20.42179298400879,262.575439453125,North America
Jaraguá do Sul,Brazil,-26.48,-49.0999852,130130,0.1000789850950241,100.07898509502412,4955740,43983,1965-01-20T00:00:00.000000000,-26.537784576416016,310.7828063964844,South America
Vizianagaram,India,18.110991898813182,83.40137201021288,179358,0.0999470353126525,99.9470353126526,2100110,43300,1964-10-26T15:00:00.000000000,18.242530822753903,83.41463470458984,Asia
Miaoli,Taiwan,24.57,120.82,150000,0.0999459028244018,99.94590282440186,1744057,50957,1967-06-10T18:00:00.000000000,24.63971900939941,120.73875427246094,Asia
Maanshan,China,31.672563922240595,118.4851484740624,1366302,0.0999161303043365,99.91613030433656,1397180,24910,1958-07-11T21:00:00.000000000,31.52899742126465,118.42105102539062,Asia
Gyeongju,South Korea,35.8427592,129.211689,155237,0.0998939424753189,99.89394247531892,1203875,13878,1954-10-01T21:00:00.000000000,35.746925354003906,129.3170166015625,Asia
Haikou,China,20.0500023,110.3200256,2046189,0.0998557731509208,99.85577315092088,1991195,24537,1958-05-26T06:00:00.000000000,20.140596389770508,110.29058074951172,Asia
Calatrava,Equatorial Guinea,1.1164034,9.4185876,628,0.0997855514287948,99.78555142879486,3218276,22626,1957-09-29T09:00:00.000000000,1.089630961418152,9.361701965332031,Africa
Chirala,India,15.860413,80.3399951,253000,0.0997354760766029,99.73547607660294,2233286,44886,1965-05-12T21:00:00.000000000,15.992969512939451,80.20813751220703,Asia
Ansan,South Korea,37.3480678,126.8595328,739493,0.0997049510478973,99.70495104789734,1133532,39881,1963-08-26T06:00:00.000000000,37.36379623413086,126.69322967529295,Asia
Incheon,South Korea,37.4780937,126.6402876,2550000,0.0997049510478973,99.70495104789734,1133532,39881,1963-08-26T06:00:00.000000000,37.36379623413086,126.69322967529295,Asia
Rivas,Nicaragua,11.4403727,-85.8199919,31941,0.0996560379862785,99.65603798627852,2514415,10911,1953-09-26T00:00:00.000000000,11.49384880065918,274.1748352050781,North America
Petrópolis,Brazil,-22.509493,-43.1999836,286071,0.0996422842144966,99.6422842144966,4746445,44143,1965-02-09T00:00:00.000000000,-22.60105323791504,316.7289733886719,South America
Hamamatsu,Japan,34.7180733,137.7327193,977023,0.099575936794281,99.575936794281,1247788,57460,1969-08-31T15:00:00.000000000,34.76274108886719,137.62025451660156,Asia
Homestead,United States of America,25.468302,-80.4777857,85967,0.0995520129799842,99.55201297998428,1701147,44293,1965-02-27T18:00:00.000000000,25.48330307006836,279.4685363769531,North America
Kendari,Indonesia,-3.9553283,122.5973124,165377,0.0995468646287918,99.5468646287918,3573137,8015,1952-09-29T00:00:00.000000000,-3.8312828540802,122.70731353759766,Asia
Nautla,Mexico,20.2165812,-96.7833537,2890,0.0994644463062286,99.46444630622864,1984913,25713,1958-10-20T06:00:00.000000000,20.28119468688965,263.222900390625,North America
Tokyo,Japan,35.6869628,139.7494616,35676000,0.0993086248636245,99.30862486362456,1194677,5072,1951-09-27T03:00:00.000000000,35.957820892333984,140.29754638671875,Asia
Handan,China,36.5819211,114.4780325,1631000,0.0992908254265785,99.29082542657852,1172916,37107,1962-09-13T12:00:00.000000000,36.44991302490234,114.6736297607422,Asia
Santa Cruz,Bolivia,-17.7519718,-63.2279422,2102998,0.0992636978626251,99.26369786262512,4479254,53193,1968-03-16T06:00:00.000000000,-17.891036987304688,296.5631103515625,South America
Mazatenango,Guatemala,14.530365,-91.5099805,64652,0.099188357591629,99.18835759162904,2325188,30568,1960-06-18T03:00:00.000000000,14.516695976257324,268.4972229003906,North America
Townsville,Australia,-19.2499503,146.7699971,138954,0.0991632044315338,99.1632044315338,4563184,20613,1957-01-20T18:00:00.000000000,-19.367311477661133,146.64024353027344,Oceania
Blumenau,Brazil,-26.9200248,-49.0899858,293949,0.0991568192839622,99.15681928396224,4977430,35025,1961-12-27T06:00:00.000000000,-26.959577560424805,311.05438232421875,South America
Xiantao,China,30.3723518,113.438096,1556000,0.0991547182202339,99.15471822023392,1444332,56804,1969-06-10T15:00:00.000000000,30.54481506347656,113.5058822631836,Asia
Paracuru,Brazil,-3.3995483,-39.0400308,21196,0.0991266444325447,99.12664443254472,3541319,32569,1961-02-23T06:00:00.000000000,-3.339191436767578,320.9296569824219,South America
Changhua,Taiwan,24.0734001,120.5134086,750000,0.0991256982088089,99.1256982088089,1777836,1185,1950-05-29T06:00:00.000000000,24.00702857971192,120.63626861572266,Asia
Sasebo,Japan,33.1631295,129.7177046,237444,0.098982959985733,98.98295998573305,1321445,51639,1967-09-04T00:00:00.000000000,33.145870208740234,129.85240173339844,Asia
Tottori,Japan,35.500377,134.2332946,154098,0.0989812016487121,98.98120164871216,1216362,4807,1951-08-25T00:00:00.000000000,35.465728759765625,134.07691955566406,Asia
Natal,Brazil,-5.7780773,-35.2419502,1088000,0.0989540964365005,98.95409643650056,3721650,1116,1950-05-20T15:00:00.000000000,-5.940246105194092,324.75,South America
Montemorelos,Mexico,25.1899986,-99.8399889,42640,0.0989262238144874,98.92622381448746,1715736,22849,1957-10-27T06:00:00.000000000,25.20210838317871,260.0863952636719,North America
Bolama,Guinea Bissau,11.582953,-15.482804,10769,0.0988217070698738,98.8217070698738,2510807,48800,1966-09-14T03:00:00.000000000,11.564146995544434,344.4910583496094,Africa
Puerto Armuelles,Panama,8.280023,-82.8700169,27147,0.0987118259072303,98.71182590723038,2724997,48380,1966-07-23T15:00:00.000000000,8.26010513305664,277.0951232910156,North America
Valparai,India,10.3204153,76.9699682,114308,0.0986329615116119,98.63296151161194,2593297,14020,1954-10-19T15:00:00.000000000,10.228470802307127,76.88323211669922,Asia
Cẩm Phả,Vietnam,21.0404328,107.320002,135477,0.098593071103096,98.593071103096,1939615,48800,1966-09-14T03:00:00.000000000,21.054481506347656,107.36040496826172,Asia
Biak,Indonesia,-1.1614937,136.048481,103610,0.098567210137844,98.56721013784409,3378377,56288,1969-04-07T03:00:00.000000000,-1.089630961418152,135.9574432373047,Asia
Shantou,China,23.3719522,116.6680797,1601000,0.0984325930476188,98.43259304761888,1808094,13049,1954-06-20T06:00:00.000000000,23.444639205932617,116.78233337402344,Asia
Sinnamary,France,5.3800191,-52.9599821,3180,0.098414272069931,98.41427206993104,2920194,9882,1953-05-20T09:00:00.000000000,5.377855777740479,307.1026611328125,Europe
Hachinohe,Japan,40.5099937,141.5400321,239046,0.0983440577983856,98.34405779838562,1005020,4581,1951-07-27T18:00:00.000000000,40.456939697265625,141.66432189941406,Asia
Changzhou,China,31.7819298,119.9680333,1327000,0.0983142331242561,98.31423312425612,1390516,48793,1966-09-13T06:00:00.000000000,31.66959571838379,120.0,Asia
Medan,Indonesia,3.5819198,98.6480944,2115000,0.0982719138264656,98.2719138264656,3049295,18011,1956-03-01T12:00:00.000000000,3.479789018630981,98.74494171142578,Asia
Zvishavane,Zimbabwe,-20.3295744,30.0499898,35896,0.0982521250844001,98.25212508440018,4614028,55295,1968-12-04T00:00:00.000000000,-20.28119468688965,30.0,Africa
Port Lavaca,United States of America,28.6160169,-96.6296938,11743,0.0982159525156021,98.21595251560213,1539031,27273,1959-05-03T06:00:00.000000000,28.646747589111328,263.4321594238281,North America
Kilinochchi,Sri Lanka,9.4004197,80.3999397,103717,0.0981944799423217,98.19447994232178,2643689,43419,1964-11-10T12:00:00.000000000,9.45518398284912,80.53043365478516,Asia
Childress,United States of America,34.4248871,-100.2139195,6557,0.0981635153293609,98.16351532936096,1264715,22114,1957-07-27T09:00:00.000000000,34.41124725341797,259.8113098144531,North America
Kuantan,Malaysia,3.8299587,103.3200394,366229,0.0980550870299339,98.05508702993392,3019795,17077,1955-11-05T18:00:00.000000000,3.901581764221192,103.32791137695312,Asia
Pointe-à-Pitre,France,16.241475,-61.5329989,145511,0.0980526059865951,98.05260598659515,2214754,39463,1963-07-05T00:00:00.000000000,16.344463348388672,298.5741577148437,Europe
Miri,Malaysia,4.3999239,113.9845048,228212,0.0979948863387107,97.99488633871078,2985630,20295,1956-12-12T00:00:00.000000000,4.393672943115234,113.86251831054688,Asia
Santiago,Dominican Republic,19.50001,-70.6700122,1550753,0.0979420468211174,97.9420468211174,2017213,4127,1951-06-01T00:00:00.000000000,19.71880531311035,289.4521789550781,North America
Puerto Plata,Dominican Republic,19.7902171,-70.6902475,119897,0.0979420468211174,97.9420468211174,2017213,4127,1951-06-01T00:00:00.000000000,19.71880531311035,289.4521789550781,North America
Dakar,Senegal,14.7177776,-17.475076,2604000,0.0978816226124763,97.88162261247636,2326074,1824,1950-08-17T03:00:00.000000000,14.516695976257324,342.467529296875,Africa
Mayumba,Gabon,-3.4166015,10.650037,3996,0.0977310240268707,97.73102402687071,3546946,54921,1968-10-18T06:00:00.000000000,-3.479789018630981,10.639676094055176,Africa
Puerto Villarroel,Bolivia,-16.8700439,-64.78001,1778,0.0977141931653022,97.71419316530228,4421185,8371,1952-11-12T12:00:00.000000000,-16.9068546295166,295.25860595703125,South America
Suzhou,China,31.3024242,120.6180712,1650000,0.0977138876914978,97.7138876914978,1413967,45265,1965-06-29T06:00:00.000000000,31.17750358581543,120.6064224243164,Asia
Thanh Hóa,Vietnam,19.8200163,105.7999914,197551,0.0977114513516426,97.7114513516426,2007141,54438,1968-08-18T21:00:00.000000000,19.85940170288086,105.71855926513672,Asia
Sandakan,Malaysia,5.8429625,118.107974,392288,0.0976650789380073,97.66507893800735,2888743,33,1950-01-05T06:00:00.000000000,5.799648284912109,118.22795104980467,Asia
Ujjain,India,23.1904049,75.7900402,513350,0.0976598709821701,97.6598709821701,1822904,36601,1962-07-12T06:00:00.000000000,23.16344451904297,75.7696304321289,Asia
Jingmen,China,31.03140982416812,112.2010339823121,400000,0.0976461023092269,97.646102309227,1423997,56803,1969-06-10T12:00:00.000000000,30.96660804748535,112.28672790527344,Asia
Izamal,Mexico,20.9304136,-89.020055,14954,0.0976274013519287,97.62740135192873,1949295,8624,1952-12-14T03:00:00.000000000,20.91388320922852,270.911865234375,North America
Saint-Louis,Mauritania,16.0199898,-16.5100106,220792,0.0976040363311767,97.60403633117676,2227927,13534,1954-08-19T21:00:00.000000000,16.133567810058594,343.5355529785156,Africa
Majuro,Marshall Islands,7.1030043,171.3800002,25400,0.0975886955857276,97.58869558572768,2798824,25852,1958-11-06T15:00:00.000000000,7.135324954986572,171.32713317871094,Oceania
Kupang,Indonesia,-10.1786694,123.5829886,282396,0.0975009202957153,97.50092029571532,3995242,6080,1952-01-31T03:00:00.000000000,-10.087873458862305,123.52322387695312,Asia
Ambala,India,30.37731135845541,76.7918216150194,146787,0.0974445715546608,97.4445715546608,1450791,5099,1951-09-30T12:00:00.000000000,30.404216766357425,76.7957763671875,Asia
Wuhu,China,31.3523695,118.3680277,810000,0.0972816199064254,97.28161990642548,1400525,24910,1958-07-11T21:00:00.000000000,31.45869827270508,118.38710021972656,Asia
Hong Kong,Hong Kong S.A.R.,22.3069268,114.1830635,7206000,0.0972804874181747,97.28048741817474,1869431,30200,1960-05-03T03:00:00.000000000,22.31985855102539,114.19855499267578,Asia
Shijiazhuang,China,38.0519605,114.4780325,2417000,0.0972121134400367,97.21211344003676,1112447,39740,1963-08-08T15:00:00.000000000,37.85588836669922,114.24932861328124,Asia
Roebourne,Australia,-20.7829317,117.1333048,19260,0.0971791297197341,97.1791297197342,4642788,43893,1965-01-08T18:00:00.000000000,-20.773286819458008,117.20930480957033,Oceania
Yélimané,Mali,15.1337132,-10.5666266,988,0.0971734821796417,97.17348217964172,2287494,36939,1962-08-23T12:00:00.000000000,15.149384498596191,349.3919677734375,Africa
Itabuna,Brazil,-14.7896024,-39.2800161,221938,0.0971316844224929,97.13168442249298,4298739,50372,1967-03-29T15:00:00.000000000,-14.868189811706545,320.66168212890625,South America
Tacloban,Philippines,11.250436,125.0000081,280006,0.0970234647393226,97.02346473932266,2521532,34924,1961-12-14T15:00:00.000000000,11.353251457214355,125.0222625732422,Asia
Tanga,Tanzania,-5.0700407,39.0900065,224876,0.096988208591938,96.98820859193802,3650228,865,1950-04-19T06:00:00.000000000,-4.956063270568848,39.14332962036133,Africa
Malé,Maldives,4.17203699470936,73.5089005260037,112927,0.0968890339136123,96.88903391361237,3004662,17297,1955-12-03T06:00:00.000000000,4.112477779388428,73.55628204345703,Asia
Andoany,Madagascar,-13.4000232,48.266604,22680,0.0968481823801994,96.84818238019945,4208823,14448,1954-12-12T03:00:00.000000000,-13.462214469909668,48.33485794067383,Africa
Pilibhit,India,28.6399947,79.8100016,131008,0.0968177020549774,96.81770205497742,1533737,43048,1964-09-25T03:00:00.000000000,28.7170467376709,79.82876586914062,Asia
Ormac,Philippines,11.0642975,124.6075256,167584,0.0968050956726074,96.80509567260742,2548548,41098,1964-01-25T09:00:00.000000000,10.931458473205566,124.67670440673828,Asia
Colombo,Sri Lanka,6.9319658,79.8577506,217000,0.0967825502157211,96.78255021572112,2816579,33171,1961-05-09T12:00:00.000000000,6.854129791259766,79.9915771484375,Asia
Sri Jayawardenepura Kotte,Sri Lanka,6.9000039,79.949993,115826,0.0967825502157211,96.78255021572112,2816579,33171,1961-05-09T12:00:00.000000000,6.854129791259766,79.9915771484375,Asia
Moratuwa,Sri Lanka,6.7803988,79.8800232,200000,0.0967825502157211,96.78255021572112,2816579,33171,1961-05-09T12:00:00.000000000,6.854129791259766,79.9915771484375,Asia
Niterói,Brazil,-22.88253375568974,-43.10582636571889,1500513,0.0967542380094528,96.75423800945282,4761818,6465,1952-03-19T06:00:00.000000000,-22.88224983215332,317.0177307128906,South America
Zhangzhou,China,24.5203754,117.6700162,3531147,0.0967467278242111,96.74672782421112,1740294,51667,1967-09-07T12:00:00.000000000,24.71001625061035,117.87781524658205,Asia
Macaé,Brazil,-22.3799918,-41.7899921,143029,0.0967347025871276,96.73470258712769,4727157,6626,1952-04-08T09:00:00.000000000,-22.24955940246582,318.06817626953125,South America
Hachiōji,Japan,35.6577059,139.3260587,579399,0.0967275649309158,96.72756493091585,1213289,31477,1960-10-09T18:00:00.000000000,35.53602600097656,139.21694946289062,Asia
San Carlos,Philippines,10.5503754,123.3800036,6353,0.0967120379209518,96.71203792095184,2571158,46426,1965-11-21T09:00:00.000000000,10.579964637756348,123.33333587646484,Asia
Nuku'alofa,Tonga,-21.1385124,-175.2205645,42620,0.0966985523700714,96.6985523700714,4663261,30284,1960-05-13T15:00:00.000000000,-21.124780654907227,184.8475646972656,Oceania
Kuching,Malaysia,1.5299699,110.3299991,570407,0.0965909510850906,96.59095108509064,3179225,11733,1954-01-06T18:00:00.000000000,1.652021050453186,110.2696304321289,Asia
St.-Benoit,France,-21.0335107,55.7128161,35310,0.0965500697493553,96.55006974935532,4657909,2952,1951-01-05T03:00:00.000000000,-21.054481506347656,55.64466857910156,Europe
Port Charlotte,United States of America,27.0000432,-82.1056967,64279,0.096509926021099,96.50992602109908,1624542,52142,1967-11-05T21:00:00.000000000,26.959577560424805,277.8912353515625,North America
Tebingtinggi,Indonesia,3.3303768,99.1300109,268043,0.0965042188763618,96.50421887636185,3064137,40711,1963-12-08T00:00:00.000000000,3.268892765045166,99.23263549804688,Asia
Navajoa,Mexico,27.0818986,-109.4546216,116093,0.0964840725064277,96.48407250642776,1617067,28280,1959-09-06T03:00:00.000000000,27.100175857543945,250.5784149169922,North America
Port Antonio,Jamaica,18.1590031,-76.3800026,14400,0.0964411795139312,96.44117951393127,2106493,3395,1951-03-01T12:00:00.000000000,18.172231674194336,283.59649658203125,North America
Jaffna,Sri Lanka,9.6750025,80.0050284,250000,0.0964361205697059,96.43612056970596,2634491,11524,1953-12-11T15:00:00.000000000,9.595782279968262,79.88675689697266,Asia
Karumba,Australia,-17.4833398,140.8334086,173,0.0963816195726394,96.38161957263948,4452678,359,1950-02-15T00:00:00.000000000,-17.4692440032959,140.90733337402344,Oceania
Kediri,Indonesia,-7.7896163,112.0000264,235143,0.0962297543883323,96.22975438833237,3851665,49466,1966-12-06T09:00:00.000000000,-7.908611297607422,111.88566589355467,Asia
Ongole,India,15.505577334845766,80.05770666642721,202860,0.0962119847536087,96.2119847536087,2258719,25656,1958-10-13T03:00:00.000000000,15.57117748260498,80.17874145507812,Asia
Fukuoka,Japan,33.5969611,130.4080679,2792000,0.0961890742182731,96.18907421827316,1295566,24952,1958-07-17T03:00:00.000000000,33.70825958251953,130.36024475097656,Asia
Chukai,Malaysia,4.2332416,103.4478869,82425,0.096088021993637,96.08802199363708,3000168,37703,1962-11-27T00:00:00.000000000,4.182776927947998,103.44490051269533,Asia
Kumbakonam,India,10.951296280928258,79.38752768454357,139264,0.0960459262132644,96.04592621326448,2547979,20197,1956-11-29T18:00:00.000000000,10.931458473205566,79.31797790527344,Asia
San Fernando de Apure,Venezuela,7.8999945,-67.4699492,122701,0.0960443392395973,96.04433923959732,2748593,35964,1962-04-23T15:00:00.000000000,7.908611297607422,292.5,South America
Waingapu,Indonesia,-9.6582361,120.253011,48828,0.0960390791296958,96.03907912969588,3967741,3004,1951-01-11T15:00:00.000000000,-9.666080474853516,120.28770446777344,Asia
Mossendjo,Congo (Brazzaville),-2.9396281,12.7199882,30936,0.0959927514195442,95.99275141954422,3512283,45961,1965-09-24T06:00:00.000000000,-2.98769760131836,12.681159019470217,Africa
Juradó,Colombia,7.1217475,-77.7564014,2351,0.0959544852375984,95.95448523759842,2805018,12963,1954-06-09T12:00:00.000000000,7.06502628326416,282.3141784667969,South America
Registro,Brazil,-24.4900439,-47.8399846,53273,0.0959288924932479,95.928892493248,4848903,46968,1966-01-28T03:00:00.000000000,-24.49912071228028,312.2115478515625,South America
Saidu,Pakistan,34.7500352,72.3499918,1860310,0.0958867594599723,95.88675945997238,1247215,48623,1966-08-23T00:00:00.000000000,34.76274108886719,72.3417739868164,Asia
Hebi,China,35.9503754,114.2200459,244662,0.0958749502897262,95.87495028972626,1191363,45538,1965-08-02T09:00:00.000000000,36.02811813354492,114.1321258544922,Asia
Port Morant,Jamaica,17.891001,-76.3289996,11536,0.0958657562732696,95.86575627326964,2122947,3397,1951-03-01T18:00:00.000000000,17.891036987304688,283.71844482421875,North America
Ciego de Ávila,Cuba,21.8399964,-78.7619473,142027,0.0958363860845565,95.83638608455658,1902306,9952,1953-05-29T03:00:00.000000000,21.757469177246094,281.1692199707031,North America
Chetumal,Mexico,18.5000193,-88.2999956,154517,0.0958232507109642,95.8232507109642,2094061,52119,1967-11-03T00:00:00.000000000,18.38312721252441,271.759521484375,North America
Labasa,Fiji,-16.4165832,179.3833036,24187,0.0958204343914985,95.82043439149857,4394712,54524,1968-08-29T15:00:00.000000000,-16.485061645507812,179.3142852783203,Oceania
Ilhéus,Brazil,-14.7800423,-39.0500043,230622,0.095799520611763,95.799520611763,4298744,12033,1954-02-13T06:00:00.000000000,-14.868189811706545,321.0810852050781,South America
Solenzo,Burkina Faso,12.1833333,-4.0833333,10385,0.0957367643713951,95.73676437139513,2475222,4537,1951-07-22T06:00:00.000000000,12.126537322998049,355.9532470703125,Africa
Sagar,India,23.8503904,78.7500146,328240,0.0956573560833931,95.6573560833931,1781171,13246,1954-07-14T21:00:00.000000000,23.936731338500977,78.8453369140625,Asia
Surakarta,Indonesia,-7.5649788,110.8250077,555308,0.0956501066684722,95.65010666847228,3837566,35394,1962-02-11T09:00:00.000000000,-7.6977152824401855,110.7574462890625,Asia
Yokohama,Japan,35.4306562,139.602021,3697894,0.0956452265381813,95.6452265381813,1225786,5070,1951-09-26T21:00:00.000000000,35.25483322143555,139.5402374267578,Asia
Dédougou,Burkina Faso,12.455001,-3.4640004,45341,0.0956336483359336,95.63364833593369,2457462,4536,1951-07-22T03:00:00.000000000,12.407732963562012,356.58843994140625,Africa
Manokwari,Indonesia,-0.8711238,134.0692736,74504,0.0955299139022827,95.52991390228271,3358012,5861,1952-01-03T18:00:00.000000000,-0.80843585729599,134.04556274414062,Asia
Golfito,Costa Rica,8.6500263,-83.149974,6777,0.0954782590270042,95.47825902700424,2701698,20036,1956-11-09T15:00:00.000000000,8.61159896850586,276.8158264160156,North America
Pokhara,Nepal,28.204200899659607,84.00558021350962,200000,0.0954393669962883,95.4393669962883,1561929,30951,1960-08-05T00:00:00.000000000,28.1546573638916,83.99320983886719,Asia
Fulacunda,Guinea Bissau,11.772999,-15.1949965,1311,0.0954301208257675,95.43012082576752,2501855,42420,1964-07-08T15:00:00.000000000,11.704745292663574,344.78533935546875,Africa
Zacatecoluca,El Salvador,13.508001,-88.8679976,39613,0.0953849554061889,95.38495540618896,2390365,10915,1953-09-26T12:00:00.000000000,13.462214469909668,271.1528015136719,North America
Rayong,Thailand,12.671848,101.2814559,37035,0.0953599065542221,95.3599065542221,2436626,11036,1953-10-11T15:00:00.000000000,12.68892765045166,101.25,Asia
Río Cuarto,Argentina,-33.1300333,-64.3499846,153757,0.0953510329127311,95.35103291273116,5282076,6126,1952-02-05T21:00:00.000000000,-33.21616744995117,295.7142944335937,South America
Kota Baharu,Malaysia,6.119974,102.2299768,505583,0.0952717214822769,95.27172148227692,2859759,52346,1967-12-01T09:00:00.000000000,6.22144079208374,102.26588439941406,Asia
Pago Pago,American Samoa,-14.2766105,-170.7066451,12576,0.0952520370483398,95.25203704833984,4262709,13021,1954-06-16T18:00:00.000000000,-14.30579948425293,189.241439819336,Oceania
Yaan,China,29.9804297,103.0800024,340000,0.0952355414628982,95.23554146289824,1474988,22037,1957-07-17T18:00:00.000000000,29.91212654113769,103.09662628173828,Asia
Matsue,Japan,35.466994,133.0666475,156811,0.0952323377132415,95.23233771324158,1219476,39920,1963-08-31T03:00:00.000000000,35.39543151855469,133.2138214111328,Asia
Nagasaki,Japan,32.7649884,129.8850329,435455,0.0952033326029777,95.20333260297777,1334483,39898,1963-08-28T09:00:00.000000000,32.86467361450195,129.87759399414062,Asia
Ciudad Cortés,Costa Rica,8.9603691,-83.5300025,3850,0.0951840579509735,95.18405795097352,2678499,40280,1963-10-15T03:00:00.000000000,8.963092803955078,276.5341491699219,North America
Juchitan,Mexico,16.4299907,-95.0199988,67637,0.0950947850942611,95.09478509426116,2205952,28657,1959-10-23T06:00:00.000000000,16.485061645507812,265.028564453125,North America
Boffa,Guinea,10.1850031,-14.0429964,2332,0.0950842872262001,95.0842872262001,2596703,36822,1962-08-08T21:00:00.000000000,10.228470802307127,346.0140380859375,Africa
Tuy Hòa,Vietnam,13.082004,109.3159987,69596,0.0950647816061973,95.06478160619736,2414698,46258,1965-10-31T09:00:00.000000000,13.04042148590088,109.24476623535156,Asia
Cebu,Philippines,10.3219219,123.8981294,815000,0.0949676409363746,94.96764093637466,2580243,46425,1965-11-21T06:00:00.000000000,10.439367294311523,123.8292236328125,Asia
Zhubei,Taiwan,24.8333333,121.0119444,200000,0.0948813557624816,94.88135576248168,1729149,24528,1958-05-25T03:00:00.000000000,24.920913696289062,120.87096405029295,Asia
Wollongong,Australia,-34.4153812,150.890004,260914,0.0948588773608207,94.85887736082076,5332231,41553,1964-03-22T06:00:00.000000000,-34.34095001220703,150.9422149658203,Oceania
Huzhou,China,30.8723212,120.0980513,1231000,0.0948424339294433,94.84243392944336,1424071,4640,1951-08-04T03:00:00.000000000,30.96660804748535,120.17772674560548,Asia
Usulután,El Salvador,13.3460011,-88.4320016,51910,0.0948390886187553,94.83908861875534,2394745,4293,1951-06-21T18:00:00.000000000,13.391915321350098,271.5630798339844,North America
Singaraja,Indonesia,-8.1151993,115.094398,234468,0.0948360860347747,94.83608603477478,3870428,55616,1969-01-13T03:00:00.000000000,-8.189806938171387,114.96575164794922,Asia
San Antonio,United States of America,29.41984847860336,-98.4926929920987,1473000,0.094797097146511,94.79709714651108,1500656,24710,1958-06-16T21:00:00.000000000,29.420034408569336,261.4780578613281,North America
Kanoya,Japan,31.3833157,130.8500386,82335,0.0947919636964798,94.7919636964798,1407344,4623,1951-08-02T00:00:00.000000000,31.31810188293457,130.87008666992188,Asia
Rabaul,Papua New Guinea,-4.2054904,152.1434307,8074,0.0947789549827575,94.77895498275755,3602989,16715,1955-09-21T12:00:00.000000000,-4.25307559967041,152.13235473632812,Oceania
Sendai,Japan,38.2684409197744,140.86966685536837,2250000,0.094571940600872,94.57194060087204,1097801,45825,1965-09-07T06:00:00.000000000,38.20738220214844,141.01214599609375,Asia
Tsuruoka,Japan,38.7004142,139.830214,99820,0.0945673361420631,94.56733614206314,1080082,48575,1966-08-17T00:00:00.000000000,38.629173278808594,139.83673095703125,Asia
Zhenjiang,China,32.175729712978345,119.43048109709628,854000,0.0945498570799827,94.54985707998276,1363955,42419,1964-07-08T12:00:00.000000000,32.23198699951172,119.30992889404295,Asia
Caboolture,Australia,-27.0829606,152.9499816,31513,0.0945218354463577,94.52183544635773,4979449,44265,1965-02-24T06:00:00.000000000,-27.02987670898437,152.89999389648438,Oceania
Manzanillo,Mexico,19.0495866,-104.3230851,110735,0.0944295898079872,94.4295898079872,2049099,54764,1968-09-28T15:00:00.000000000,19.156414031982425,255.68182373046875,North America
Leshan,China,29.5690416,103.7314017,1157000,0.0944182723760604,94.41827237606049,1481871,13117,1954-06-28T18:00:00.000000000,29.771528244018555,103.58885192871094,Asia
Rio Largo,Brazil,-9.480004,-35.8399677,158545,0.0944002196192741,94.40021961927414,3956563,27465,1959-05-27T06:00:00.000000000,-9.45518398284912,324.2347717285156,South America
Yangjiang,China,21.8504092,111.9700024,872363,0.0943313390016555,94.33133900165558,1900473,48022,1966-06-08T21:00:00.000000000,21.757469177246094,111.96923065185548,Asia
Amapá,Brazil,2.0499898,-50.8000106,1947,0.0943304374814033,94.33043748140337,3151811,30210,1960-05-04T09:00:00.000000000,2.0738136768341064,309.1553649902344,South America
Pemba,Mozambique,-12.983046,40.5323474,110643,0.0942930281162262,94.2930281162262,4182414,14241,1954-11-16T06:00:00.000000000,-13.04042148590088,40.454959869384766,Africa
Chandigarh,India,30.7219428,76.7780598,979000,0.0942586585879325,94.2586585879326,1437196,5105,1951-10-01T06:00:00.000000000,30.68541145324707,76.8396224975586,Asia
Hadiboh,Yemen,12.651875,54.023927,11396,0.0942471474409103,94.24714744091034,2440464,55319,1968-12-07T00:00:00.000000000,12.61862850189209,54.08144760131836,Asia
Ōita,Japan,33.243228,131.5978999,448907,0.0941081345081329,94.10813450813292,1318212,57334,1969-08-15T21:00:00.000000000,33.21616744995117,131.6748809814453,Asia
Zigong,China,29.4019459,104.7780561,1105000,0.094103068113327,94.10306811332704,1492229,7373,1952-07-10T18:00:00.000000000,29.56063270568848,104.6875,Asia
Kawasaki,Japan,35.5299876,139.705002,1437266,0.0940964967012405,94.09649670124054,1222657,5070,1951-09-26T21:00:00.000000000,35.325130462646484,139.60357666015625,Asia
Ye,Myanmar,15.2532666,97.8678658,50798,0.0940753519535064,94.07535195350648,2275964,12801,1954-05-20T06:00:00.000000000,15.289981842041016,97.84442138671876,Asia
Sydney,Australia,-33.87137339218338,151.2125477744749,4630000,0.0940189436078071,94.01894360780716,5303414,41224,1964-02-10T03:00:00.000000000,-33.70825958251953,151.37887573242188,Oceania
Laredo,United States of America,27.5061363,-99.5072185,434768,0.0940118208527565,94.0118208527565,1592086,57904,1969-10-26T03:00:00.000000000,27.592266082763672,260.51568603515625,North America
Nuevo Laredo,Mexico,27.4999868,-99.5500066,349550,0.0940118208527565,94.0118208527565,1592086,57904,1969-10-26T03:00:00.000000000,27.592266082763672,260.51568603515625,North America
Puyang,China,35.7003906,114.9799996,666322,0.0939342528581619,93.93425285816193,1200651,51257,1967-07-18T06:00:00.000000000,35.817222595214844,115.08386993408205,Asia
Bhilai,India,21.21126196187745,81.3722129528492,1097000,0.0938470140099525,93.84701400995256,1927532,27693,1959-06-24T18:00:00.000000000,21.26537704467773,81.38492584228516,Asia
Yaynangyoung,Myanmar,20.46145,94.880968,110553,0.0938356965780258,93.83569657802582,1979068,41935,1964-05-09T00:00:00.000000000,20.35149383544922,94.7939682006836,Asia
Alagoinhas,Brazil,-12.1399967,-38.4299905,124070,0.0937837958335876,93.78379583358765,4123932,12490,1954-04-11T09:00:00.000000000,-12.056239128112791,321.5094299316406,South America
Bintulu,Malaysia,3.1664075,113.0359838,151617,0.0937291458249092,93.7291458249092,3074239,45317,1965-07-05T18:00:00.000000000,3.1282951831817627,113.15322875976562,Asia
Myeik,Myanmar,12.4540835,98.6114896,266720,0.0936912149190902,93.69121491909029,2449856,24281,1958-04-24T06:00:00.000000000,12.478031158447266,98.53658294677734,Asia
Paranaguá,Brazil,-25.5278756,-48.5344535,141013,0.0936798900365829,93.67989003658296,4908263,44488,1965-03-24T03:00:00.000000000,-25.6239013671875,311.38043212890625,South America
Kouroussa,Guinea,10.6530031,-9.8919985,14223,0.0936637371778488,93.66373717784882,2569480,22329,1957-08-23T06:00:00.000000000,10.650263786315918,350.1500549316406,Africa
Legazpi,Philippines,13.1699829,123.7500069,320081,0.0936606153845787,93.6606153845787,2410482,2734,1950-12-08T21:00:00.000000000,13.11072063446045,123.77049255371094,Asia
Florianópolis,Brazil,-27.5780387,-48.5219664,1023000,0.0936601534485817,93.6601534485817,5016821,18561,1956-05-09T06:00:00.000000000,-27.73286437988281,311.5617980957031,South America
Lázaro Cárdenas,Mexico,17.9587087,-102.199974,160087,0.0936520770192146,93.65207701921464,2114417,34340,1961-10-02T15:00:00.000000000,18.031633377075195,257.83074951171875,North America
Jiaojing,China,28.6804057,121.4499922,471500,0.0936391502618789,93.63915026187895,1534141,45762,1965-08-30T09:00:00.000000000,28.7170467376709,121.33561706542967,Asia
Huangyan,China,28.65002,121.2500044,198713,0.0936391502618789,93.63915026187895,1534141,45762,1965-08-30T09:00:00.000000000,28.7170467376709,121.33561706542967,Asia
San Pablo,Philippines,14.0695663,121.3226098,240830,0.0936067402362823,93.60674023628236,2358045,14099,1954-10-29T12:00:00.000000000,13.954305648803713,121.4088363647461,Asia
Cagayan de Oro,Philippines,8.4508395,124.6852986,1121561,0.0935745388269424,93.57453882694244,2699736,52582,1967-12-30T21:00:00.000000000,8.61159896850586,124.85369873046876,Asia
Massawa,Eritrea,15.6101182,39.4500362,142564,0.0935726016759872,93.57260167598724,2253991,31815,1960-11-21T00:00:00.000000000,15.641475677490234,39.576271057128906,Africa
Boké,Guinea,10.9399898,-14.2999905,116270,0.0935397371649742,93.5397371649742,2555839,10711,1953-09-01T00:00:00.000000000,10.861159324645996,345.5840759277344,Africa
Lafia,Nigeria,8.4904236,8.5200378,127236,0.0935046970844268,93.50469708442688,2707533,42874,1964-09-03T09:00:00.000000000,8.471001625061035,8.427835464477539,Africa
Uyo,Nigeria,5.036013508874578,7.916152558612238,554906,0.0934988856315612,93.49888563156128,2945232,4673,1951-08-08T06:00:00.000000000,4.956063270568848,8.006589889526367,Africa
Eidsvold,Australia,-25.3662178,151.1333483,459,0.0934944972395896,93.49449723958968,4891871,23658,1958-02-05T09:00:00.000000000,-25.34270668029785,151.07142639160156,Oceania
Sekondi,Ghana,4.9432758,-1.7040151,286248,0.0934316962957382,93.43169629573822,2949958,56851,1969-06-16T12:00:00.000000000,4.956063270568848,358.3690185546875,Africa
Nandyal,India,15.464096780310284,78.48663840446497,188654,0.0933101028203964,93.31010282039642,2267208,45216,1965-06-23T03:00:00.000000000,15.430580139160156,78.42253875732422,Asia
Balikpapan,Indonesia,-1.2500154,116.8300158,445905,0.0932414829730987,93.24148297309875,3393321,48351,1966-07-20T00:00:00.000000000,-1.3005272150039673,116.94313049316406,Asia
Pa-an,Myanmar,16.8499981,97.6167006,50000,0.0931816473603248,93.18164736032486,2178877,30465,1960-06-05T06:00:00.000000000,16.9068546295166,97.67241668701172,Asia
Gold Coast,Australia,-28.0815043,153.4482458,527660,0.0930599421262741,93.05994212627412,5029466,32132,1960-12-30T15:00:00.000000000,-28.01405906677246,153.38600158691406,Oceania
Surigao,Philippines,9.7842981,125.4888155,87832,0.0929701030254364,92.9701030254364,2621317,11619,1953-12-23T12:00:00.000000000,9.80667781829834,125.52838134765624,Asia
Nova Iguaçu,Brazil,-22.755051717816965,-43.44518951988282,844583,0.0929511785507202,92.9511785507202,4750292,29207,1959-12-31T00:00:00.000000000,-22.67135238647461,316.5904235839844,South America
Duque de Caxias,Brazil,-22.796378408911043,-43.30560241118898,842890,0.0929511785507202,92.9511785507202,4750292,29207,1959-12-31T00:00:00.000000000,-22.67135238647461,316.5904235839844,South America
Dondo,Angola,-9.6900171,14.430013,2353,0.0929010733962059,92.9010733962059,3966391,41782,1964-04-19T21:00:00.000000000,-9.666080474853516,14.359197616577148,Africa
Xiamen,China,24.4519379,118.0780712,2519000,0.0928349569439888,92.8349569439888,1759004,18646,1956-05-19T21:00:00.000000000,24.358522415161133,118.20895385742188,Asia
Harper,Liberia,4.3753776,-7.7169814,32661,0.092784009873867,92.78400987386703,2993759,44871,1965-05-11T00:00:00.000000000,4.323374271392822,352.2731018066406,Africa
Linqing,China,36.850398,115.6800085,110046,0.0927795246243476,92.77952462434769,1157659,4519,1951-07-20T00:00:00.000000000,36.80140686035156,115.78186798095705,Asia
Mali,Guinea,12.084003,-12.3010014,5479,0.0927278995513916,92.7278995513916,2479571,28122,1959-08-17T09:00:00.000000000,12.056239128112791,347.6280212402344,Africa
Suzhou,China,33.638057,116.976943,1964000,0.0925951302051544,92.59513020515442,1292231,21875,1957-06-27T12:00:00.000000000,33.77855682373047,117.20149230957033,Asia
Curepipe,Mauritius,-20.3161902,57.5166337,299975,0.0924753099679946,92.47530996799468,4622294,30795,1960-07-16T12:00:00.000000000,-20.42179298400879,57.40442657470703,Africa
Tehuantepec,Mexico,16.3299968,-95.229986,42776,0.0924088284373283,92.40882843732834,2218569,43124,1964-10-04T15:00:00.000000000,16.2741641998291,264.70086669921875,North America
Blitar,Indonesia,-8.0695992,112.1499914,132416,0.0923663526773452,92.36635267734528,3865718,50728,1967-05-13T03:00:00.000000000,-8.119507789611816,112.24978637695312,Asia
